faa,name,lat,lon,,,,,,
04G,Lansdowne Airport,41.1304722,-80.6195833,,"("""""",A2,""''"",""="",""''"",B2,""''"")",,"""","04G""= ""Lansdowne Airport ""","""04G""= ""Lansdowne Airport """
06A,Moton Field Municipal Airport,32.4605722,-85.6800278,,''06A''=''Moton Field Municipal Airport'',,"""","06A""= ""Moton Field Municipal Airport ""","""06A""= ""Moton Field Municipal Airport """
06C,Schaumburg Regional,41.9893408,-88.1012428,,''06C''=''Schaumburg Regional'',,"""","06C""= ""Schaumburg Regional ""","""06C""= ""Schaumburg Regional """
06N,Randall Airport,41.431912,-74.3915611,,''06N''=''Randall Airport'',,"""","06N""= ""Randall Airport ""","""06N""= ""Randall Airport """
09J,Jekyll Island Airport,31.0744722,-81.4277778,,''09J''=''Jekyll Island Airport'',,"""","09J""= ""Jekyll Island Airport ""","""09J""= ""Jekyll Island Airport """
0A9,Elizabethton Municipal Airport,36.3712222,-82.1734167,,''0A9''=''Elizabethton Municipal Airport'',,"""","0A9""= ""Elizabethton Municipal Airport ""","""0A9""= ""Elizabethton Municipal Airport """
0G6,Williams County Airport,41.4673056,-84.5067778,,''0G6''=''Williams County Airport'',,"""","0G6""= ""Williams County Airport ""","""0G6""= ""Williams County Airport """
0G7,Finger Lakes Regional Airport,42.8835647,-76.7812318,,''0G7''=''Finger Lakes Regional Airport'',,"""","0G7""= ""Finger Lakes Regional Airport ""","""0G7""= ""Finger Lakes Regional Airport """
0P2,Shoestring Aviation Airfield,39.7948244,-76.6471914,,''0P2''=''Shoestring Aviation Airfield'',,"""","0P2""= ""Shoestring Aviation Airfield ""","""0P2""= ""Shoestring Aviation Airfield """
0S9,Jefferson County Intl,48.0538086,-122.8106436,,''0S9''=''Jefferson County Intl'',,"""","0S9""= ""Jefferson County Intl ""","""0S9""= ""Jefferson County Intl """
0W3,Harford County Airport,39.5668378,-76.2024028,,''0W3''=''Harford County Airport'',,"""","0W3""= ""Harford County Airport ""","""0W3""= ""Harford County Airport """
10C,Galt Field Airport,42.4028889,-88.3751111,,''10C''=''Galt Field Airport'',,"""","10C""= ""Galt Field Airport ""","""10C""= ""Galt Field Airport """
17G,Port Bucyrus-Crawford County Airport,40.7815556,-82.9748056,,''17G''=''Port Bucyrus-Crawford County Airport'',,"""","17G""= ""Port Bucyrus-Crawford County Airport ""","""17G""= ""Port Bucyrus-Crawford County Airport """
19A,Jackson County Airport,34.1758638,-83.5615972,,''19A''=''Jackson County Airport'',,"""","19A""= ""Jackson County Airport ""","""19A""= ""Jackson County Airport """
1A3,Martin Campbell Field Airport,35.0158056,-84.3468333,,''1A3''=''Martin Campbell Field Airport'',,"""","1A3""= ""Martin Campbell Field Airport ""","""1A3""= ""Martin Campbell Field Airport """
1B9,Mansfield Municipal,42.0001331,-71.1967714,,''1B9''=''Mansfield Municipal'',,"""","1B9""= ""Mansfield Municipal ""","""1B9""= ""Mansfield Municipal """
1C9,Frazier Lake Airpark,54.01333333,-124.7683333,,''1C9''=''Frazier Lake Airpark'',,"""","1C9""= ""Frazier Lake Airpark ""","""1C9""= ""Frazier Lake Airpark """
1CS,Clow International Airport,41.6959744,-88.1292306,,''1CS''=''Clow International Airport'',,"""","1CS""= ""Clow International Airport ""","""1CS""= ""Clow International Airport """
1G3,Kent State Airport,41.1513889,-81.4151111,,''1G3''=''Kent State Airport'',,"""","1G3""= ""Kent State Airport ""","""1G3""= ""Kent State Airport """
1OH,Fortman Airport,40.5553253,-84.3866186,,''1OH''=''Fortman Airport'',,"""","1OH""= ""Fortman Airport ""","""1OH""= ""Fortman Airport """
1RL,Point Roberts Airpark,48.9797222,-123.0788889,,''1RL''=''Point Roberts Airpark'',,"""","1RL""= ""Point Roberts Airpark ""","""1RL""= ""Point Roberts Airpark """
24C,Lowell City Airport,42.95392,-85.3439058,,''24C''=''Lowell City Airport'',,"""","24C""= ""Lowell City Airport ""","""24C""= ""Lowell City Airport """
24J,Suwannee County Airport,30.300125,-83.0246944,,''24J''=''Suwannee County Airport'',,"""","24J""= ""Suwannee County Airport ""","""24J""= ""Suwannee County Airport """
25D,Forest Lake Airport,45.2477456,-92.9943853,,''25D''=''Forest Lake Airport'',,"""","25D""= ""Forest Lake Airport ""","""25D""= ""Forest Lake Airport """
29D,Grove City Airport,41.1460278,-80.16775,,''29D''=''Grove City Airport'',,"""","29D""= ""Grove City Airport ""","""29D""= ""Grove City Airport """
2A0,Mark Anton Airport,35.48625,-84.9310833,,''2A0''=''Mark Anton Airport'',,"""","2A0""= ""Mark Anton Airport ""","""2A0""= ""Mark Anton Airport """
2G2,Jefferson County Airpark,40.3602179,-80.7008742,,''2G2''=''Jefferson County Airpark'',,"""","2G2""= ""Jefferson County Airpark ""","""2G2""= ""Jefferson County Airpark """
2G9,Somerset County Airport,40.0388708,-79.0149951,,''2G9''=''Somerset County Airport'',,"""","2G9""= ""Somerset County Airport ""","""2G9""= ""Somerset County Airport """
2J9,Quincy Municipal Airport,30.5978708,-84.557425,,''2J9''=''Quincy Municipal Airport'',,"""","2J9""= ""Quincy Municipal Airport ""","""2J9""= ""Quincy Municipal Airport """
369,Atmautluak Airport,60.866667,-162.273056,,''369''=''Atmautluak Airport'',,"""","369""= ""Atmautluak Airport ""","""369""= ""Atmautluak Airport """
36U,Heber City Municipal Airport,40.4818056,-111.4288056,,''36U''=''Heber City Municipal Airport'',,"""","36U""= ""Heber City Municipal Airport ""","""36U""= ""Heber City Municipal Airport """
38W,Lynden Airport,48.9558961,-122.4581183,,''38W''=''Lynden Airport'',,"""","38W""= ""Lynden Airport ""","""38W""= ""Lynden Airport """
3D2,Ephraim-Gibraltar Airport,45.1354167,-87.1879444,,''3D2''=''Ephraim-Gibraltar Airport'',,"""","3D2""= ""Ephraim-Gibraltar Airport ""","""3D2""= ""Ephraim-Gibraltar Airport """
3G3,Wadsworth Municipal,41.0031572,-81.7564401,,''3G3''=''Wadsworth Municipal'',,"""","3G3""= ""Wadsworth Municipal ""","""3G3""= ""Wadsworth Municipal """
3G4,Ashland County Airport,40.9029722,-82.2556389,,''3G4''=''Ashland County Airport'',,"""","3G4""= ""Ashland County Airport ""","""3G4""= ""Ashland County Airport """
3J1,Ridgeland Airport,32.4934167,-80.99175,,''3J1''=''Ridgeland Airport'',,"""","3J1""= ""Ridgeland Airport ""","""3J1""= ""Ridgeland Airport """
3W2,Put-in-Bay Airport,41.3521,-82.497,,''3W2''=''Put-in-Bay Airport'',,"""","3W2""= ""Put-in-Bay Airport ""","""3W2""= ""Put-in-Bay Airport """
40J,Perry-Foley Airport,30.0692778,-83.5805833,,''40J''=''Perry-Foley Airport'',,"""","40J""= ""Perry-Foley Airport ""","""40J""= ""Perry-Foley Airport """
41N,Braceville Airport,41.2111675,-80.9692572,,''41N''=''Braceville Airport'',,"""","41N""= ""Braceville Airport ""","""41N""= ""Braceville Airport """
47A,Cherokee County Airport,34.3122175,-84.4221556,,''47A''=''Cherokee County Airport'',,"""","47A""= ""Cherokee County Airport ""","""47A""= ""Cherokee County Airport """
49A,Gilmer County Airport,34.6282222,-84.5265833,,''49A''=''Gilmer County Airport'',,"""","49A""= ""Gilmer County Airport ""","""49A""= ""Gilmer County Airport """
49X,Chemehuevi Valley,34.528889,-114.431971,,''49X''=''Chemehuevi Valley'',,"""","49X""= ""Chemehuevi Valley ""","""49X""= ""Chemehuevi Valley """
4A4,Polk County Airport - Cornelius Moore Field,34.0186944,-85.1464722,,''4A4''=''Polk County Airport - Cornelius Moore Field'',,"""","4A4""= ""Polk County Airport - Cornelius Moore Field ""","""4A4""= ""Polk County Airport - Cornelius Moore Field """
4A7,Clayton County Tara Field,33.389099,-84.332397,,''4A7''=''Clayton County Tara Field'',,"""","4A7""= ""Clayton County Tara Field ""","""4A7""= ""Clayton County Tara Field """
4A9,Isbell Field Airport,34.4736944,-85.7213889,,''4A9''=''Isbell Field Airport'',,"""","4A9""= ""Isbell Field Airport ""","""4A9""= ""Isbell Field Airport """
4B8,Robertson Field,41.6893333,-72.8646944,,''4B8''=''Robertson Field'',,"""","4B8""= ""Robertson Field ""","""4B8""= ""Robertson Field """
4G0,Pittsburgh-Monroeville Airport,40.4526389,-79.7749167,,''4G0''=''Pittsburgh-Monroeville Airport'',,"""","4G0""= ""Pittsburgh-Monroeville Airport ""","""4G0""= ""Pittsburgh-Monroeville Airport """
4G2,Hamburg Inc Airport,42.7008925,-78.9147569,,''4G2''=''Hamburg Inc Airport'',,"""","4G2""= ""Hamburg Inc Airport ""","""4G2""= ""Hamburg Inc Airport """
4G4,Youngstown Elser Metro Airport,40.9617953,-80.6773264,,''4G4''=''Youngstown Elser Metro Airport'',,"""","4G4""= ""Youngstown Elser Metro Airport ""","""4G4""= ""Youngstown Elser Metro Airport """
4I7,Putnam County Airport,39.6335556,-86.8138056,,''4I7''=''Putnam County Airport'',,"""","4I7""= ""Putnam County Airport ""","""4I7""= ""Putnam County Airport """
4U9,Dell Flight Strip,44.7357483,-112.7200133,,''4U9''=''Dell Flight Strip'',,"""","4U9""= ""Dell Flight Strip ""","""4U9""= ""Dell Flight Strip """
52A,Madison GA Municipal Airport,33.612125,-83.4604444,,''52A''=''Madison GA Municipal Airport'',,"""","52A""= ""Madison GA Municipal Airport ""","""52A""= ""Madison GA Municipal Airport """
54J,DeFuniak Springs Airport,30.7311111,-86.1537778,,''54J''=''DeFuniak Springs Airport'',,"""","54J""= ""DeFuniak Springs Airport ""","""54J""= ""DeFuniak Springs Airport """
55J,Fernandina Beach Municipal Airport,30.6118333,-81.4611944,,''55J''=''Fernandina Beach Municipal Airport'',,"""","55J""= ""Fernandina Beach Municipal Airport ""","""55J""= ""Fernandina Beach Municipal Airport """
57C,East Troy Municipal Airport,42.7971667,-88.3726111,,''57C''=''East Troy Municipal Airport'',,"""","57C""= ""East Troy Municipal Airport ""","""57C""= ""East Troy Municipal Airport """
60J,Ocean Isle Beach Airport,33.9085056,-78.4366722,,''60J''=''Ocean Isle Beach Airport'',,"""","60J""= ""Ocean Isle Beach Airport ""","""60J""= ""Ocean Isle Beach Airport """
6A2,Griffin-Spalding County Airport,33.2269722,-84.2749444,,''6A2''=''Griffin-Spalding County Airport'',,"""","6A2""= ""Griffin-Spalding County Airport ""","""6A2""= ""Griffin-Spalding County Airport """
6K8,Tok Junction Airport,63.329444,-142.953611,,''6K8''=''Tok Junction Airport'',,"""","6K8""= ""Tok Junction Airport ""","""6K8""= ""Tok Junction Airport """
6S0,Big Timber Airport,45.8063889,-109.9811111,,''6S0''=''Big Timber Airport'',,"""","6S0""= ""Big Timber Airport ""","""6S0""= ""Big Timber Airport """
6S2,Florence,43.9828168,-124.1113687,,''6S2''=''Florence'',,"""","6S2""= ""Florence ""","""6S2""= ""Florence """
6Y8,Welke Airport,45.721111,-85.520278,,''6Y8''=''Welke Airport'',,"""","6Y8""= ""Welke Airport ""","""6Y8""= ""Welke Airport """
70J,Cairo-Grady County Airport,30.8879767,-84.1547353,,''70J''=''Cairo-Grady County Airport'',,"""","70J""= ""Cairo-Grady County Airport ""","""70J""= ""Cairo-Grady County Airport """
70N,Spring Hill Airport,41.3473569,-75.4158972,,''70N''=''Spring Hill Airport'',,"""","70N""= ""Spring Hill Airport ""","""70N""= ""Spring Hill Airport """
7A4,Foster Field,42.4664444,-90.1693889,,''7A4''=''Foster Field'',,"""","7A4""= ""Foster Field ""","""7A4""= ""Foster Field """
7D9,Germack Airport,41.7778322,-80.9039797,,''7D9''=''Germack Airport'',,"""","7D9""= ""Germack Airport ""","""7D9""= ""Germack Airport """
7N7,Spitfire Aerodrome,39.7355633,-75.3977211,,''7N7''=''Spitfire Aerodrome'',,"""","7N7""= ""Spitfire Aerodrome ""","""7N7""= ""Spitfire Aerodrome """
8M8,Garland Airport,44.8065278,-84.2761944,,''8M8''=''Garland Airport'',,"""","8M8""= ""Garland Airport ""","""8M8""= ""Garland Airport """
93C,Richland Airport,43.2833575,-90.2982819,,''93C''=''Richland Airport'',,"""","93C""= ""Richland Airport ""","""93C""= ""Richland Airport """
99N,Bamberg County Airport,33.3045278,-81.1084167,,''99N''=''Bamberg County Airport'',,"""","99N""= ""Bamberg County Airport ""","""99N""= ""Bamberg County Airport """
9A1,Covington Municipal Airport,33.6323083,-83.8474472,,''9A1''=''Covington Municipal Airport'',,"""","9A1""= ""Covington Municipal Airport ""","""9A1""= ""Covington Municipal Airport """
9A5,Barwick Lafayette Airport,34.6884792,-85.2903319,,''9A5''=''Barwick Lafayette Airport'',,"""","9A5""= ""Barwick Lafayette Airport ""","""9A5""= ""Barwick Lafayette Airport """
A39,Phoenix Regional Airport,32.99169922,-111.9209976,,''A39''=''Phoenix Regional Airport'',,"""","A39""= ""Phoenix Regional Airport ""","""A39""= ""Phoenix Regional Airport """
AAF,Apalachicola Regional Airport,29.7276066,-85.0274416,,''AAF''=''Apalachicola Regional Airport'',,"""","AAF""= ""Apalachicola Regional Airport ""","""AAF""= ""Apalachicola Regional Airport """
ABE,Lehigh Valley Intl,40.652083,-75.440806,,''ABE''=''Lehigh Valley Intl'',,"""","ABE""= ""Lehigh Valley Intl ""","""ABE""= ""Lehigh Valley Intl """
ABI,Abilene Rgnl,32.411319,-99.681897,,''ABI''=''Abilene Rgnl'',,"""","ABI""= ""Abilene Rgnl ""","""ABI""= ""Abilene Rgnl """
ABL,Ambler Airport,67.106389,-157.8575,,''ABL''=''Ambler Airport'',,"""","ABL""= ""Ambler Airport ""","""ABL""= ""Ambler Airport """
ABQ,Albuquerque International Sunport,35.0402222,-106.6091944,,''ABQ''=''Albuquerque International Sunport'',,"""","ABQ""= ""Albuquerque International Sunport ""","""ABQ""= ""Albuquerque International Sunport """
ABR,Aberdeen Regional Airport,45.4491,-98.4218,,''ABR''=''Aberdeen Regional Airport'',,"""","ABR""= ""Aberdeen Regional Airport ""","""ABR""= ""Aberdeen Regional Airport """
ABY,Southwest Georgia Regional Airport,31.5355,-84.1945,,''ABY''=''Southwest Georgia Regional Airport'',,"""","ABY""= ""Southwest Georgia Regional Airport ""","""ABY""= ""Southwest Georgia Regional Airport """
ACK,Nantucket Mem,41.253053,-70.060181,,''ACK''=''Nantucket Mem'',,"""","ACK""= ""Nantucket Mem ""","""ACK""= ""Nantucket Mem """
ACT,Waco Rgnl,31.611289,-97.230519,,''ACT''=''Waco Rgnl'',,"""","ACT""= ""Waco Rgnl ""","""ACT""= ""Waco Rgnl """
ACV,Arcata,40.978111,-124.108611,,''ACV''=''Arcata'',,"""","ACV""= ""Arcata ""","""ACV""= ""Arcata """
ACY,Atlantic City Intl,39.457583,-74.577167,,''ACY''=''Atlantic City Intl'',,"""","ACY""= ""Atlantic City Intl ""","""ACY""= ""Atlantic City Intl """
ADK,Adak Airport,51.878,-176.646,,''ADK''=''Adak Airport'',,"""","ADK""= ""Adak Airport ""","""ADK""= ""Adak Airport """
ADM,Ardmore Muni,34.300833,-97.008889,,''ADM''=''Ardmore Muni'',,"""","ADM""= ""Ardmore Muni ""","""ADM""= ""Ardmore Muni """
ADQ,Kodiak,57.749967,-152.493856,,''ADQ''=''Kodiak'',,"""","ADQ""= ""Kodiak ""","""ADQ""= ""Kodiak """
ADS,Addison,32.9685594,-96.8364478,,''ADS''=''Addison'',,"""","ADS""= ""Addison ""","""ADS""= ""Addison """
ADW,Andrews Afb,38.810806,-76.867028,,''ADW''=''Andrews Afb'',,"""","ADW""= ""Andrews Afb ""","""ADW""= ""Andrews Afb """
AET,Allakaket Airport,66.5519,-152.6222,,''AET''=''Allakaket Airport'',,"""","AET""= ""Allakaket Airport ""","""AET""= ""Allakaket Airport """
AEX,Alexandria Intl,31.3274,-92.549833,,''AEX''=''Alexandria Intl'',,"""","AEX""= ""Alexandria Intl ""","""AEX""= ""Alexandria Intl """
AFE,Kake Airport,56.961389,-133.910278,,''AFE''=''Kake Airport'',,"""","AFE""= ""Kake Airport ""","""AFE""= ""Kake Airport """
AFW,Fort Worth Alliance Airport,32.987778,-97.318889,,''AFW''=''Fort Worth Alliance Airport'',,"""","AFW""= ""Fort Worth Alliance Airport ""","""AFW""= ""Fort Worth Alliance Airport """
AGC,Allegheny County Airport,40.3544,-79.9302,,''AGC''=''Allegheny County Airport'',,"""","AGC""= ""Allegheny County Airport ""","""AGC""= ""Allegheny County Airport """
AGN,Angoon Seaplane Base,57.503611,-134.585,,''AGN''=''Angoon Seaplane Base'',,"""","AGN""= ""Angoon Seaplane Base ""","""AGN""= ""Angoon Seaplane Base """
AGS,Augusta Rgnl At Bush Fld,33.369944,-81.9645,,''AGS''=''Augusta Rgnl At Bush Fld'',,"""","AGS""= ""Augusta Rgnl At Bush Fld ""","""AGS""= ""Augusta Rgnl At Bush Fld """
AHN,Athens Ben Epps Airport,33.9486,-83.3263,,''AHN''=''Athens Ben Epps Airport'',,"""","AHN""= ""Athens Ben Epps Airport ""","""AHN""= ""Athens Ben Epps Airport """
AIA,Alliance Municipal Airport,42.053333,-102.803889,,''AIA''=''Alliance Municipal Airport'',,"""","AIA""= ""Alliance Municipal Airport ""","""AIA""= ""Alliance Municipal Airport """
AIK,Municipal Airport,33.6493889,-81.6850278,,''AIK''=''Municipal Airport'',,"""","AIK""= ""Municipal Airport ""","""AIK""= ""Municipal Airport """
AIN,Wainwright Airport,70.638056,-159.994722,,''AIN''=''Wainwright Airport'',,"""","AIN""= ""Wainwright Airport ""","""AIN""= ""Wainwright Airport """
AIZ,Lee C Fine Memorial Airport,38.096035,-92.5494875,,''AIZ''=''Lee C Fine Memorial Airport'',,"""","AIZ""= ""Lee C Fine Memorial Airport ""","""AIZ""= ""Lee C Fine Memorial Airport """
AKB,Atka Airport,52.220278,-174.206389,,''AKB''=''Atka Airport'',,"""","AKB""= ""Atka Airport ""","""AKB""= ""Atka Airport """
AKC,Akron Fulton Intl,41.0375,-81.466917,,''AKC''=''Akron Fulton Intl'',,"""","AKC""= ""Akron Fulton Intl ""","""AKC""= ""Akron Fulton Intl """
AKI,Akiak Airport,60.902778,-161.230556,,''AKI''=''Akiak Airport'',,"""","AKI""= ""Akiak Airport ""","""AKI""= ""Akiak Airport """
AKK,Akhiok Airport,56.938611,-154.1825,,''AKK''=''Akhiok Airport'',,"""","AKK""= ""Akhiok Airport ""","""AKK""= ""Akhiok Airport """
AKN,King Salmon,58.676778,-156.649278,,''AKN''=''King Salmon'',,"""","AKN""= ""King Salmon ""","""AKN""= ""King Salmon """
AKP,Anaktuvuk Pass Airport,68.1336,-151.743,,''AKP''=''Anaktuvuk Pass Airport'',,"""","AKP""= ""Anaktuvuk Pass Airport ""","""AKP""= ""Anaktuvuk Pass Airport """
ALB,Albany Intl,42.748267,-73.801692,,''ALB''=''Albany Intl'',,"""","ALB""= ""Albany Intl ""","""ALB""= ""Albany Intl """
ALI,Alice Intl,27.740889,-98.026944,,''ALI''=''Alice Intl'',,"""","ALI""= ""Alice Intl ""","""ALI""= ""Alice Intl """
ALM,Alamogordo White Sands Regional Airport,32.8399,-105.991,,''ALM''=''Alamogordo White Sands Regional Airport'',,"""","ALM""= ""Alamogordo White Sands Regional Airport ""","""ALM""= ""Alamogordo White Sands Regional Airport """
ALO,Waterloo Regional Airport,42.5571,-92.4003,,''ALO''=''Waterloo Regional Airport'',,"""","ALO""= ""Waterloo Regional Airport ""","""ALO""= ""Waterloo Regional Airport """
ALS,San Luis Valley Regional Airport,37.435,-105.866667,,''ALS''=''San Luis Valley Regional Airport'',,"""","ALS""= ""San Luis Valley Regional Airport ""","""ALS""= ""San Luis Valley Regional Airport """
ALW,Walla Walla Regional Airport,46.0949,-118.288,,''ALW''=''Walla Walla Regional Airport'',,"""","ALW""= ""Walla Walla Regional Airport ""","""ALW""= ""Walla Walla Regional Airport """
ALX,Alexandria,38.806346,-77.0621,,''ALX''=''Alexandria'',,"""","ALX""= ""Alexandria ""","""ALX""= ""Alexandria """
ALZ,Alitak Seaplane Base,56.899444,-154.247778,,''ALZ''=''Alitak Seaplane Base'',,"""","ALZ""= ""Alitak Seaplane Base ""","""ALZ""= ""Alitak Seaplane Base """
AMA,Rick Husband Amarillo Intl,35.219369,-101.705931,,''AMA''=''Rick Husband Amarillo Intl'',,"""","AMA""= ""Rick Husband Amarillo Intl ""","""AMA""= ""Rick Husband Amarillo Intl """
ANB,Anniston Metro,33.588167,-85.858111,,''ANB''=''Anniston Metro'',,"""","ANB""= ""Anniston Metro ""","""ANB""= ""Anniston Metro """
ANC,Ted Stevens Anchorage Intl,61.174361,-149.996361,,''ANC''=''Ted Stevens Anchorage Intl'',,"""","ANC""= ""Ted Stevens Anchorage Intl ""","""ANC""= ""Ted Stevens Anchorage Intl """
AND,Anderson Rgnl,34.494583,-82.709389,,''AND''=''Anderson Rgnl'',,"""","AND""= ""Anderson Rgnl ""","""AND""= ""Anderson Rgnl """
ANI,Aniak Airport,61.5816,-159.543,,''ANI''=''Aniak Airport'',,"""","ANI""= ""Aniak Airport ""","""ANI""= ""Aniak Airport """
ANN,Annette Island,55.042436,-131.572233,,''ANN''=''Annette Island'',,"""","ANN""= ""Annette Island ""","""ANN""= ""Annette Island """
ANP,Lee Airport,38.942778,-76.568333,,''ANP''=''Lee Airport'',,"""","ANP""= ""Lee Airport ""","""ANP""= ""Lee Airport """
ANQ,Tri-State Steuben County Airport,41.6396983,-85.0834933,,''ANQ''=''Tri-State Steuben County Airport'',,"""","ANQ""= ""Tri-State Steuben County Airport ""","""ANQ""= ""Tri-State Steuben County Airport """
ANV,Anvik Airport,62.6467,-160.191,,''ANV''=''Anvik Airport'',,"""","ANV""= ""Anvik Airport ""","""ANV""= ""Anvik Airport """
AOH,Lima Allen County Airport,40.707478,-84.0270781,,''AOH''=''Lima Allen County Airport'',,"""","AOH""= ""Lima Allen County Airport ""","""AOH""= ""Lima Allen County Airport """
AOO,Altoona Blair Co,40.296372,-78.320022,,''AOO''=''Altoona Blair Co'',,"""","AOO""= ""Altoona Blair Co ""","""AOO""= ""Altoona Blair Co """
AOS,Amook Bay Seaplane Base,57.471389,-153.815278,,''AOS''=''Amook Bay Seaplane Base'',,"""","AOS""= ""Amook Bay Seaplane Base ""","""AOS""= ""Amook Bay Seaplane Base """
APA,Centennial,39.570129,-104.849294,,''APA''=''Centennial'',,"""","APA""= ""Centennial ""","""APA""= ""Centennial """
APC,Napa County Airport,38.2131944,-122.2806944,,''APC''=''Napa County Airport'',,"""","APC""= ""Napa County Airport ""","""APC""= ""Napa County Airport """
APF,Naples Muni,26.152619,-81.775294,,''APF''=''Naples Muni'',,"""","APF""= ""Naples Muni ""","""APF""= ""Naples Muni """
APG,Phillips Aaf,39.466219,-76.168808,,''APG''=''Phillips Aaf'',,"""","APG""= ""Phillips Aaf ""","""APG""= ""Phillips Aaf """
APN,Alpena County Regional Airport,45.0781,-83.5603,,''APN''=''Alpena County Regional Airport'',,"""","APN""= ""Alpena County Regional Airport ""","""APN""= ""Alpena County Regional Airport """
AQC,Klawock Seaplane Base,55.554658,-133.101693,,''AQC''=''Klawock Seaplane Base'',,"""","AQC""= ""Klawock Seaplane Base ""","""AQC""= ""Klawock Seaplane Base """
ARA,Acadiana Rgnl,30.037758,-91.883896,,''ARA''=''Acadiana Rgnl'',,"""","ARA""= ""Acadiana Rgnl ""","""ARA""= ""Acadiana Rgnl """
ARB,Ann Arbor Municipal Airport,42.132274,-83.444418,,''ARB''=''Ann Arbor Municipal Airport'',,"""","ARB""= ""Ann Arbor Municipal Airport ""","""ARB""= ""Ann Arbor Municipal Airport """
ARC,Arctic Village Airport,68.1147,-145.579,,''ARC''=''Arctic Village Airport'',,"""","ARC""= ""Arctic Village Airport ""","""ARC""= ""Arctic Village Airport """
ART,Watertown Intl,43.991922,-76.021739,,''ART''=''Watertown Intl'',,"""","ART""= ""Watertown Intl ""","""ART""= ""Watertown Intl """
ARV,Lakeland,45.927778,-89.730833,,''ARV''=''Lakeland'',,"""","ARV""= ""Lakeland ""","""ARV""= ""Lakeland """
ASE,Aspen Pitkin County Sardy Field,39.2232,-106.869,,''ASE''=''Aspen Pitkin County Sardy Field'',,"""","ASE""= ""Aspen Pitkin County Sardy Field ""","""ASE""= ""Aspen Pitkin County Sardy Field """
ASH,Boire Field Airport,42.78175,-71.5147778,,''ASH''=''Boire Field Airport'',,"""","ASH""= ""Boire Field Airport ""","""ASH""= ""Boire Field Airport """
AST,Astoria Regional Airport,46.157972,-123.878694,,''AST''=''Astoria Regional Airport'',,"""","AST""= ""Astoria Regional Airport ""","""AST""= ""Astoria Regional Airport """
ATK,Atqasuk Edward Burnell Sr Memorial Airport,70.4673,-157.436,,''ATK''=''Atqasuk Edward Burnell Sr Memorial Airport'',,"""","ATK""= ""Atqasuk Edward Burnell Sr Memorial Airport ""","""ATK""= ""Atqasuk Edward Burnell Sr Memorial Airport """
ATL,Hartsfield Jackson Atlanta Intl,33.636719,-84.428067,,''ATL''=''Hartsfield Jackson Atlanta Intl'',,"""","ATL""= ""Hartsfield Jackson Atlanta Intl ""","""ATL""= ""Hartsfield Jackson Atlanta Intl """
ATT,Camp Mabry Austin City,30.31666,-97.7666,,''ATT''=''Camp Mabry Austin City'',,"""","ATT""= ""Camp Mabry Austin City ""","""ATT""= ""Camp Mabry Austin City """
ATW,Appleton,44.257526,-88.507576,,''ATW''=''Appleton'',,"""","ATW""= ""Appleton ""","""ATW""= ""Appleton """
ATY,Watertown Regional Airport,44.914,-97.1547,,''ATY''=''Watertown Regional Airport'',,"""","ATY""= ""Watertown Regional Airport ""","""ATY""= ""Watertown Regional Airport """
AUG,Augusta State,44.320647,-69.797317,,''AUG''=''Augusta State'',,"""","AUG""= ""Augusta State ""","""AUG""= ""Augusta State """
AUK,Alakanuk Airport,62.68,-164.66,,''AUK''=''Alakanuk Airport'',,"""","AUK""= ""Alakanuk Airport ""","""AUK""= ""Alakanuk Airport """
AUS,Austin Bergstrom Intl,30.194528,-97.669889,,''AUS''=''Austin Bergstrom Intl'',,"""","AUS""= ""Austin Bergstrom Intl ""","""AUS""= ""Austin Bergstrom Intl """
AUW,Wausau Downtown Airport,44.9262845,-89.6270018,,''AUW''=''Wausau Downtown Airport'',,"""","AUW""= ""Wausau Downtown Airport ""","""AUW""= ""Wausau Downtown Airport """
AVL,Asheville Regional Airport,35.436194,-82.541806,,''AVL''=''Asheville Regional Airport'',,"""","AVL""= ""Asheville Regional Airport ""","""AVL""= ""Asheville Regional Airport """
AVO,Executive,27.591389,-81.528889,,''AVO''=''Executive'',,"""","AVO""= ""Executive ""","""AVO""= ""Executive """
AVP,Wilkes Barre Scranton Intl,41.338478,-75.723403,,''AVP''=''Wilkes Barre Scranton Intl'',,"""","AVP""= ""Wilkes Barre Scranton Intl ""","""AVP""= ""Wilkes Barre Scranton Intl """
AVW,Marana Regional,32.409556,-111.218388,,''AVW''=''Marana Regional'',,"""","AVW""= ""Marana Regional ""","""AVW""= ""Marana Regional """
AVX,Avalon,33.405,-118.415833,,''AVX''=''Avalon'',,"""","AVX""= ""Avalon ""","""AVX""= ""Avalon """
AZA,Phoenix-Mesa Gateway,33.307833,-111.655,,''AZA''=''Phoenix-Mesa Gateway'',,"""","AZA""= ""Phoenix-Mesa Gateway ""","""AZA""= ""Phoenix-Mesa Gateway """
AZO,Kalamazoo,42.234875,-85.552058,,''AZO''=''Kalamazoo'',,"""","AZO""= ""Kalamazoo ""","""AZO""= ""Kalamazoo """
BAB,Beale Afb,39.136089,-121.436567,,''BAB''=''Beale Afb'',,"""","BAB""= ""Beale Afb ""","""BAB""= ""Beale Afb """
BAD,Barksdale Afb,32.50182,-93.662674,,''BAD''=''Barksdale Afb'',,"""","BAD""= ""Barksdale Afb ""","""BAD""= ""Barksdale Afb """
BAF,Barnes Municipal,42.1579472,-72.715875,,''BAF''=''Barnes Municipal'',,"""","BAF""= ""Barnes Municipal ""","""BAF""= ""Barnes Municipal """
BBX,Wings Field,40.1375,-75.265,,''BBX''=''Wings Field'',,"""","BBX""= ""Wings Field ""","""BBX""= ""Wings Field """
BCE,Bryce Canyon,37.706444,-112.145806,,''BCE''=''Bryce Canyon'',,"""","BCE""= ""Bryce Canyon ""","""BCE""= ""Bryce Canyon """
BCT,Boca Raton,26.3785,-80.107694,,''BCT''=''Boca Raton'',,"""","BCT""= ""Boca Raton ""","""BCT""= ""Boca Raton """
BDE,Baudette Intl,48.728444,-94.612222,,''BDE''=''Baudette Intl'',,"""","BDE""= ""Baudette Intl ""","""BDE""= ""Baudette Intl """
BDL,Bradley Intl,41.938889,-72.683222,,''BDL''=''Bradley Intl'',,"""","BDL""= ""Bradley Intl ""","""BDL""= ""Bradley Intl """
BDR,Igor I Sikorsky Mem,41.163472,-73.126167,,''BDR''=''Igor I Sikorsky Mem'',,"""","BDR""= ""Igor I Sikorsky Mem ""","""BDR""= ""Igor I Sikorsky Mem """
BEC,Beech Factory Airport,37.6939167,-97.2149167,,''BEC''=''Beech Factory Airport'',,"""","BEC""= ""Beech Factory Airport ""","""BEC""= ""Beech Factory Airport """
BED,Laurence G Hanscom Fld,42.469953,-71.289031,,''BED''=''Laurence G Hanscom Fld'',,"""","BED""= ""Laurence G Hanscom Fld ""","""BED""= ""Laurence G Hanscom Fld """
BEH,Southwest Michigan Regional Airport,42.1285833,-86.4285,,''BEH''=''Southwest Michigan Regional Airport'',,"""","BEH""= ""Southwest Michigan Regional Airport ""","""BEH""= ""Southwest Michigan Regional Airport """
BET,Bethel,60.779778,-161.838,,''BET''=''Bethel'',,"""","BET""= ""Bethel ""","""BET""= ""Bethel """
BFD,Bradford Regional Airport,41.8031,-78.6401,,''BFD''=''Bradford Regional Airport'',,"""","BFD""= ""Bradford Regional Airport ""","""BFD""= ""Bradford Regional Airport """
BFF,Western Nebraska Regional Airport,41.874,-103.596,,''BFF''=''Western Nebraska Regional Airport'',,"""","BFF""= ""Western Nebraska Regional Airport ""","""BFF""= ""Western Nebraska Regional Airport """
BFI,Boeing Fld King Co Intl,47.53,-122.301947,,''BFI''=''Boeing Fld King Co Intl'',,"""","BFI""= ""Boeing Fld King Co Intl ""","""BFI""= ""Boeing Fld King Co Intl """
BFL,Meadows Fld,35.433598,-119.05677,,''BFL''=''Meadows Fld'',,"""","BFL""= ""Meadows Fld ""","""BFL""= ""Meadows Fld """
BFM,Mobile Downtown,30.626783,-88.068092,,''BFM''=''Mobile Downtown'',,"""","BFM""= ""Mobile Downtown ""","""BFM""= ""Mobile Downtown """
BFP,Beaver Falls,40.7724722,-80.3914444,,''BFP''=''Beaver Falls'',,"""","BFP""= ""Beaver Falls ""","""BFP""= ""Beaver Falls """
BFT,Beaufort,32.477411,-80.723161,,''BFT''=''Beaufort'',,"""","BFT""= ""Beaufort ""","""BFT""= ""Beaufort """
BGE,Decatur County Industrial Air Park,30.9715981,-84.6369278,,''BGE''=''Decatur County Industrial Air Park'',,"""","BGE""= ""Decatur County Industrial Air Park ""","""BGE""= ""Decatur County Industrial Air Park """
BGM,Greater Binghamton Edwin A Link Fld,42.208689,-75.979839,,''BGM''=''Greater Binghamton Edwin A Link Fld'',,"""","BGM""= ""Greater Binghamton Edwin A Link Fld ""","""BGM""= ""Greater Binghamton Edwin A Link Fld """
BGR,Bangor Intl,44.807444,-68.828139,,''BGR''=''Bangor Intl'',,"""","BGR""= ""Bangor Intl ""","""BGR""= ""Bangor Intl """
BHB,Hancock County - Bar Harbor,44.4497689,-68.3615653,,''BHB''=''Hancock County - Bar Harbor'',,"""","BHB""= ""Hancock County - Bar Harbor ""","""BHB""= ""Hancock County - Bar Harbor """
BHM,Birmingham Intl,33.562942,-86.75355,,''BHM''=''Birmingham Intl'',,"""","BHM""= ""Birmingham Intl ""","""BHM""= ""Birmingham Intl """
BID,Block Island State Airport,41.168056,-71.577778,,''BID''=''Block Island State Airport'',,"""","BID""= ""Block Island State Airport ""","""BID""= ""Block Island State Airport """
BIF,Biggs Aaf,31.849528,-106.380039,,''BIF''=''Biggs Aaf'',,"""","BIF""= ""Biggs Aaf ""","""BIF""= ""Biggs Aaf """
BIG,Allen Aaf,63.994547,-145.721642,,''BIG''=''Allen Aaf'',,"""","BIG""= ""Allen Aaf ""","""BIG""= ""Allen Aaf """
BIL,Billings Logan International Airport,45.80921,-108.537654,,''BIL''=''Billings Logan International Airport'',,"""","BIL""= ""Billings Logan International Airport ""","""BIL""= ""Billings Logan International Airport """
BIS,Bismarck Municipal Airport,46.775842,-100.757931,,''BIS''=''Bismarck Municipal Airport'',,"""","BIS""= ""Bismarck Municipal Airport ""","""BIS""= ""Bismarck Municipal Airport """
BIV,Tulip City Airport,42.7427778,-86.1078333,,''BIV''=''Tulip City Airport'',,"""","BIV""= ""Tulip City Airport ""","""BIV""= ""Tulip City Airport """
BIX,Keesler Afb,30.410425,-88.924433,,''BIX''=''Keesler Afb'',,"""","BIX""= ""Keesler Afb ""","""BIX""= ""Keesler Afb """
BJC,Rocky Mountain Metropolitan Airport,39.90888888,-105.1172222,,''BJC''=''Rocky Mountain Metropolitan Airport'',,"""","BJC""= ""Rocky Mountain Metropolitan Airport ""","""BJC""= ""Rocky Mountain Metropolitan Airport """
BJI,Bemidji Regional Airport,47.510722,-94.934722,,''BJI''=''Bemidji Regional Airport'',,"""","BJI""= ""Bemidji Regional Airport ""","""BJI""= ""Bemidji Regional Airport """
BKC,Buckland Airport,65.981667,-161.149167,,''BKC''=''Buckland Airport'',,"""","BKC""= ""Buckland Airport ""","""BKC""= ""Buckland Airport """
BKD,Stephens Co,32.719047,-98.891,,''BKD''=''Stephens Co'',,"""","BKD""= ""Stephens Co ""","""BKD""= ""Stephens Co """
BKF,Buckley Afb,39.701668,-104.75166,,''BKF''=''Buckley Afb'',,"""","BKF""= ""Buckley Afb ""","""BKF""= ""Buckley Afb """
BKG,Branson LLC,36.531994,-93.200556,,''BKG''=''Branson LLC'',,"""","BKG""= ""Branson LLC ""","""BKG""= ""Branson LLC """
BKH,Barking Sands Pmrf,22.022833,-159.785,,''BKH''=''Barking Sands Pmrf'',,"""","BKH""= ""Barking Sands Pmrf ""","""BKH""= ""Barking Sands Pmrf """
BKL,Burke Lakefront Airport,41.5175,-81.683333,,''BKL''=''Burke Lakefront Airport'',,"""","BKL""= ""Burke Lakefront Airport ""","""BKL""= ""Burke Lakefront Airport """
BKW,Raleigh County Memorial Airport,37.7873,-81.1242,,''BKW''=''Raleigh County Memorial Airport'',,"""","BKW""= ""Raleigh County Memorial Airport ""","""BKW""= ""Raleigh County Memorial Airport """
BKX,Brookings Regional Airport,44.3048,-96.8169,,''BKX''=''Brookings Regional Airport'',,"""","BKX""= ""Brookings Regional Airport ""","""BKX""= ""Brookings Regional Airport """
BLD,Boulder City Municipal Airport,35.5651,-114.514,,''BLD''=''Boulder City Municipal Airport'',,"""","BLD""= ""Boulder City Municipal Airport ""","""BLD""= ""Boulder City Municipal Airport """
BLF,Mercer County Airport,37.2958,-81.2077,,''BLF''=''Mercer County Airport'',,"""","BLF""= ""Mercer County Airport ""","""BLF""= ""Mercer County Airport """
BLH,Blythe Airport,33.619167,-114.716889,,''BLH''=''Blythe Airport'',,"""","BLH""= ""Blythe Airport ""","""BLH""= ""Blythe Airport """
BLI,Bellingham Intl,48.792694,-122.537528,,''BLI''=''Bellingham Intl'',,"""","BLI""= ""Bellingham Intl ""","""BLI""= ""Bellingham Intl """
BLV,Scott Afb Midamerica,38.545178,-89.835183,,''BLV''=''Scott Afb Midamerica'',,"""","BLV""= ""Scott Afb Midamerica ""","""BLV""= ""Scott Afb Midamerica """
BMC,Brigham City,41.552,-112.062,,''BMC''=''Brigham City'',,"""","BMC""= ""Brigham City ""","""BMC""= ""Brigham City """
BMG,Monroe County Airport,39.1460208,-86.6166805,,''BMG''=''Monroe County Airport'',,"""","BMG""= ""Monroe County Airport ""","""BMG""= ""Monroe County Airport """
BMI,Central Illinois Rgnl,40.477111,-88.915917,,''BMI''=''Central Illinois Rgnl'',,"""","BMI""= ""Central Illinois Rgnl ""","""BMI""= ""Central Illinois Rgnl """
BMX,Big Mountain Afs,59.361247,-155.258822,,''BMX''=''Big Mountain Afs'',,"""","BMX""= ""Big Mountain Afs ""","""BMX""= ""Big Mountain Afs """
BNA,Nashville Intl,36.124472,-86.678194,,''BNA''=''Nashville Intl'',,"""","BNA""= ""Nashville Intl ""","""BNA""= ""Nashville Intl """
BOI,Boise Air Terminal,43.564361,-116.222861,,''BOI''=''Boise Air Terminal'',,"""","BOI""= ""Boise Air Terminal ""","""BOI""= ""Boise Air Terminal """
BOS,General Edward Lawrence Logan Intl,42.364347,-71.005181,,''BOS''=''General Edward Lawrence Logan Intl'',,"""","BOS""= ""General Edward Lawrence Logan Intl ""","""BOS""= ""General Edward Lawrence Logan Intl """
BOW,Bartow Municipal Airport,27.9434,-81.7834,,''BOW''=''Bartow Municipal Airport'',,"""","BOW""= ""Bartow Municipal Airport ""","""BOW""= ""Bartow Municipal Airport """
BPT,Southeast Texas Rgnl,29.950833,-94.020694,,''BPT''=''Southeast Texas Rgnl'',,"""","BPT""= ""Southeast Texas Rgnl ""","""BPT""= ""Southeast Texas Rgnl """
BQK,Brunswick Golden Isles Airport,31.2588,-81.4665,,''BQK''=''Brunswick Golden Isles Airport'',,"""","BQK""= ""Brunswick Golden Isles Airport ""","""BQK""= ""Brunswick Golden Isles Airport """
BRD,Brainerd Lakes Rgnl,46.398308,-94.138078,,''BRD''=''Brainerd Lakes Rgnl'',,"""","BRD""= ""Brainerd Lakes Rgnl ""","""BRD""= ""Brainerd Lakes Rgnl """
BRL,Southeast Iowa Regional Airport,40.7832,-91.1255,,''BRL''=''Southeast Iowa Regional Airport'',,"""","BRL""= ""Southeast Iowa Regional Airport ""","""BRL""= ""Southeast Iowa Regional Airport """
BRO,Brownsville South Padre Island Intl,25.906833,-97.425861,,''BRO''=''Brownsville South Padre Island Intl'',,"""","BRO""= ""Brownsville South Padre Island Intl ""","""BRO""= ""Brownsville South Padre Island Intl """
BRW,Wiley Post Will Rogers Mem,71.285446,-156.766003,,''BRW''=''Wiley Post Will Rogers Mem'',,"""","BRW""= ""Wiley Post Will Rogers Mem ""","""BRW""= ""Wiley Post Will Rogers Mem """
BSF,Bradshaw Aaf,19.760056,-155.553717,,''BSF''=''Bradshaw Aaf'',,"""","BSF""= ""Bradshaw Aaf ""","""BSF""= ""Bradshaw Aaf """
BTI,Barter Island Lrrs,70.133989,-143.581867,,''BTI''=''Barter Island Lrrs'',,"""","BTI""= ""Barter Island Lrrs ""","""BTI""= ""Barter Island Lrrs """
BTM,Bert Mooney Airport,45.954806,-112.497472,,''BTM''=''Bert Mooney Airport'',,"""","BTM""= ""Bert Mooney Airport ""","""BTM""= ""Bert Mooney Airport """
BTR,Baton Rouge Metro Ryan Fld,30.533167,-91.149639,,''BTR''=''Baton Rouge Metro Ryan Fld'',,"""","BTR""= ""Baton Rouge Metro Ryan Fld ""","""BTR""= ""Baton Rouge Metro Ryan Fld """
BTT,Bettles,66.913944,-151.529056,,''BTT''=''Bettles'',,"""","BTT""= ""Bettles ""","""BTT""= ""Bettles """
BTV,Burlington Intl,44.471861,-73.153278,,''BTV''=''Burlington Intl'',,"""","BTV""= ""Burlington Intl ""","""BTV""= ""Burlington Intl """
BUF,Buffalo Niagara Intl,42.940525,-78.732167,,''BUF''=''Buffalo Niagara Intl'',,"""","BUF""= ""Buffalo Niagara Intl ""","""BUF""= ""Buffalo Niagara Intl """
BUR,Bob Hope,34.200667,-118.358667,,''BUR''=''Bob Hope'',,"""","BUR""= ""Bob Hope ""","""BUR""= ""Bob Hope """
BUU,Municipal Airport,42.6907171,-88.3046825,,''BUU''=''Municipal Airport'',,"""","BUU""= ""Municipal Airport ""","""BUU""= ""Municipal Airport """
BUY,Burlington-Alamance Regional Airport,36.0485433,-79.4748892,,''BUY''=''Burlington-Alamance Regional Airport'',,"""","BUY""= ""Burlington-Alamance Regional Airport ""","""BUY""= ""Burlington-Alamance Regional Airport """
BVY,Beverly Municipal Airport,42.584141,-70.9161444,,''BVY''=''Beverly Municipal Airport'',,"""","BVY""= ""Beverly Municipal Airport ""","""BVY""= ""Beverly Municipal Airport """
BWD,KBWD,31.7936111,-98.9565,,''BWD''=''KBWD'',,"""","BWD""= ""KBWD ""","""BWD""= ""KBWD """
BWG,Bowling Green-Warren County Regional Airport,36.9645278,-86.4196667,,''BWG''=''Bowling Green-Warren County Regional Airport'',,"""","BWG""= ""Bowling Green-Warren County Regional Airport ""","""BWG""= ""Bowling Green-Warren County Regional Airport """
BWI,Baltimore Washington Intl,39.175361,-76.668333,,''BWI''=''Baltimore Washington Intl'',,"""","BWI""= ""Baltimore Washington Intl ""","""BWI""= ""Baltimore Washington Intl """
BXK,Buckeye Municipal Airport,33.420417,-112.68618,,''BXK''=''Buckeye Municipal Airport'',,"""","BXK""= ""Buckeye Municipal Airport ""","""BXK""= ""Buckeye Municipal Airport """
BXS,Borrego Valley Airport,33.2590278,-116.3209722,,''BXS''=''Borrego Valley Airport'',,"""","BXS""= ""Borrego Valley Airport ""","""BXS""= ""Borrego Valley Airport """
BYH,Arkansas Intl,35.964347,-89.943956,,''BYH''=''Arkansas Intl'',,"""","BYH""= ""Arkansas Intl ""","""BYH""= ""Arkansas Intl """
BYS,Bicycle Lake Aaf,35.280531,-116.630031,,''BYS''=''Bicycle Lake Aaf'',,"""","BYS""= ""Bicycle Lake Aaf ""","""BYS""= ""Bicycle Lake Aaf """
BYW,Blakely Island Airport,48.56025,-122.80243,,''BYW''=''Blakely Island Airport'',,"""","BYW""= ""Blakely Island Airport ""","""BYW""= ""Blakely Island Airport """
BZN,Gallatin Field,45.777643,-111.160151,,''BZN''=''Gallatin Field'',,"""","BZN""= ""Gallatin Field ""","""BZN""= ""Gallatin Field """
C02,Grand Geneva Resort Airport,42.6149167,-88.3895833,,''C02''=''Grand Geneva Resort Airport'',,"""","C02""= ""Grand Geneva Resort Airport ""","""C02""= ""Grand Geneva Resort Airport """
C16,Frasca Field,40.144979,-88.200197,,''C16''=''Frasca Field'',,"""","C16""= ""Frasca Field ""","""C16""= ""Frasca Field """
C47,Portage Municipal Airport,43.5603136,-89.4828607,,''C47''=''Portage Municipal Airport'',,"""","C47""= ""Portage Municipal Airport ""","""C47""= ""Portage Municipal Airport """
C65,Plymouth Municipal Airport,41.3651307,-86.3002574,,''C65''=''Plymouth Municipal Airport'',,"""","C65""= ""Plymouth Municipal Airport ""","""C65""= ""Plymouth Municipal Airport """
C89,Sylvania Airport,42.70325,-87.9589722,,''C89''=''Sylvania Airport'',,"""","C89""= ""Sylvania Airport ""","""C89""= ""Sylvania Airport """
C91,Dowagiac Municipal Airport,41.9929342,-86.1280125,,''C91''=''Dowagiac Municipal Airport'',,"""","C91""= ""Dowagiac Municipal Airport ""","""C91""= ""Dowagiac Municipal Airport """
CAE,Columbia Metropolitan,33.938833,-81.119528,,''CAE''=''Columbia Metropolitan'',,"""","CAE""= ""Columbia Metropolitan ""","""CAE""= ""Columbia Metropolitan """
CAK,Akron Canton Regional Airport,40.9160833,-81.4421944,,''CAK''=''Akron Canton Regional Airport'',,"""","CAK""= ""Akron Canton Regional Airport ""","""CAK""= ""Akron Canton Regional Airport """
CAR,Caribou Muni,46.8715,-68.017917,,''CAR''=''Caribou Muni'',,"""","CAR""= ""Caribou Muni ""","""CAR""= ""Caribou Muni """
CBE,Greater Cumberland Rgnl.,39.615278,-78.760556,,''CBE''=''Greater Cumberland Rgnl.'',,"""","CBE""= ""Greater Cumberland Rgnl. ""","""CBE""= ""Greater Cumberland Rgnl. """
CBM,Columbus Afb,33.643833,-88.443833,,''CBM''=''Columbus Afb'',,"""","CBM""= ""Columbus Afb ""","""CBM""= ""Columbus Afb """
CCO,Coweta County Airport,33.3115656,-84.7697554,,''CCO''=''Coweta County Airport'',,"""","CCO""= ""Coweta County Airport ""","""CCO""= ""Coweta County Airport """
CCR,Buchanan Field Airport,37.9896667,-122.0568889,,''CCR''=''Buchanan Field Airport'',,"""","CCR""= ""Buchanan Field Airport ""","""CCR""= ""Buchanan Field Airport """
CDB,Cold Bay,55.206061,-162.725436,,''CDB''=''Cold Bay'',,"""","CDB""= ""Cold Bay ""","""CDB""= ""Cold Bay """
CDC,Cedar City Rgnl,37.700967,-113.098847,,''CDC''=''Cedar City Rgnl'',,"""","CDC""= ""Cedar City Rgnl ""","""CDC""= ""Cedar City Rgnl """
CDI,Cambridge Municipal Airport,39.9750278,-81.5775833,,''CDI''=''Cambridge Municipal Airport'',,"""","CDI""= ""Cambridge Municipal Airport ""","""CDI""= ""Cambridge Municipal Airport """
CDK,CedarKey,29.1342222,-83.0504722,,''CDK''=''CedarKey'',,"""","CDK""= ""CedarKey ""","""CDK""= ""CedarKey """
CDN,Woodward Field,34.2835833,-80.5648611,,''CDN''=''Woodward Field'',,"""","CDN""= ""Woodward Field ""","""CDN""= ""Woodward Field """
CDR,Chadron Municipal Airport,42.8375,-103.095556,,''CDR''=''Chadron Municipal Airport'',,"""","CDR""= ""Chadron Municipal Airport ""","""CDR""= ""Chadron Municipal Airport """
CDS,Childress Muni,34.433781,-100.287992,,''CDS''=''Childress Muni'',,"""","CDS""= ""Childress Muni ""","""CDS""= ""Childress Muni """
CDV,Merle K Mudhole Smith,60.491778,-145.477556,,''CDV''=''Merle K Mudhole Smith'',,"""","CDV""= ""Merle K Mudhole Smith ""","""CDV""= ""Merle K Mudhole Smith """
CDW,Caldwell Essex County Airport,40.8752222,-74.2813611,,''CDW''=''Caldwell Essex County Airport'',,"""","CDW""= ""Caldwell Essex County Airport ""","""CDW""= ""Caldwell Essex County Airport """
CEC,Del Norte County Airport,41.7802,-124.237,,''CEC''=''Del Norte County Airport'',,"""","CEC""= ""Del Norte County Airport ""","""CEC""= ""Del Norte County Airport """
CEF,Westover Arb Metropolitan,42.194014,-72.534783,,''CEF''=''Westover Arb Metropolitan'',,"""","CEF""= ""Westover Arb Metropolitan ""","""CEF""= ""Westover Arb Metropolitan """
CEM,Central Airport,65.573889,-144.780833,,''CEM''=''Central Airport'',,"""","CEM""= ""Central Airport ""","""CEM""= ""Central Airport """
CEU,Clemson,34.6722222,-82.8858889,,''CEU''=''Clemson'',,"""","CEU""= ""Clemson ""","""CEU""= ""Clemson """
CEW,Bob Sikes,30.778833,-86.522111,,''CEW''=''Bob Sikes'',,"""","CEW""= ""Bob Sikes ""","""CEW""= ""Bob Sikes """
CEZ,Cortez Muni,37.303,-108.628056,,''CEZ''=''Cortez Muni'',,"""","CEZ""= ""Cortez Muni ""","""CEZ""= ""Cortez Muni """
CFD,Coulter Fld,30.715694,-96.331361,,''CFD''=''Coulter Fld'',,"""","CFD""= ""Coulter Fld ""","""CFD""= ""Coulter Fld """
CGA,Craig Seaplane Base,55.478889,-133.147778,,''CGA''=''Craig Seaplane Base'',,"""","CGA""= ""Craig Seaplane Base ""","""CGA""= ""Craig Seaplane Base """
CGF,Cuyahoga County,41.565124,-81.4863555,,''CGF''=''Cuyahoga County'',,"""","CGF""= ""Cuyahoga County ""","""CGF""= ""Cuyahoga County """
CGI,Cape Girardeau Regional Airport,37.2253,-89.5708,,''CGI''=''Cape Girardeau Regional Airport'',,"""","CGI""= ""Cape Girardeau Regional Airport ""","""CGI""= ""Cape Girardeau Regional Airport """
CGX,Meigs Field,41.860278,-87.609722,,''CGX''=''Meigs Field'',,"""","CGX""= ""Meigs Field ""","""CGX""= ""Meigs Field """
CGZ,Casa Grande Municipal Airport,32.954889,-111.766832,,''CGZ''=''Casa Grande Municipal Airport'',,"""","CGZ""= ""Casa Grande Municipal Airport ""","""CGZ""= ""Casa Grande Municipal Airport """
CHA,Lovell Fld,35.035278,-85.203808,,''CHA''=''Lovell Fld'',,"""","CHA""= ""Lovell Fld ""","""CHA""= ""Lovell Fld """
CHI,All Airports,41.883611,-87.631667,,''CHI''=''All Airports'',,"""","CHI""= ""All Airports ""","""CHI""= ""All Airports """
CHO,Charlottesville-Albemarle,38.138639,-78.452861,,''CHO''=''Charlottesville-Albemarle'',,"""","CHO""= ""Charlottesville-Albemarle ""","""CHO""= ""Charlottesville-Albemarle """
CHS,Charleston Afb Intl,32.898647,-80.040528,,''CHS''=''Charleston Afb Intl'',,"""","CHS""= ""Charleston Afb Intl ""","""CHS""= ""Charleston Afb Intl """
CHU,Chuathbaluk Airport,61.579167,-159.215556,,''CHU''=''Chuathbaluk Airport'',,"""","CHU""= ""Chuathbaluk Airport ""","""CHU""= ""Chuathbaluk Airport """
CIC,Chico Muni,39.795383,-121.858422,,''CIC''=''Chico Muni'',,"""","CIC""= ""Chico Muni ""","""CIC""= ""Chico Muni """
CID,Cedar Rapids,41.884694,-91.710806,,''CID''=''Cedar Rapids'',,"""","CID""= ""Cedar Rapids ""","""CID""= ""Cedar Rapids """
CIK,Chalkyitsik Airport,66.645,-143.74,,''CIK''=''Chalkyitsik Airport'',,"""","CIK""= ""Chalkyitsik Airport ""","""CIK""= ""Chalkyitsik Airport """
CIL,Council Airport,64.897778,-163.703333,,''CIL''=''Council Airport'',,"""","CIL""= ""Council Airport ""","""CIL""= ""Council Airport """
CIU,Chippewa County International Airport,46.2508,-84.4724,,''CIU''=''Chippewa County International Airport'',,"""","CIU""= ""Chippewa County International Airport ""","""CIU""= ""Chippewa County International Airport """
CKB,Harrison Marion Regional Airport,39.2966,-80.2281,,''CKB''=''Harrison Marion Regional Airport'',,"""","CKB""= ""Harrison Marion Regional Airport ""","""CKB""= ""Harrison Marion Regional Airport """
CKD,Crooked Creek Airport,61.867778,-158.135,,''CKD''=''Crooked Creek Airport'',,"""","CKD""= ""Crooked Creek Airport ""","""CKD""= ""Crooked Creek Airport """
CKF,Crisp County Cordele Airport,31.9888333,-83.7739167,,''CKF''=''Crisp County Cordele Airport'',,"""","CKF""= ""Crisp County Cordele Airport ""","""CKF""= ""Crisp County Cordele Airport """
CKV,Clarksville-Montgomery County Regional Airport,36.621944,-87.415,,''CKV''=''Clarksville-Montgomery County Regional Airport'',,"""","CKV""= ""Clarksville-Montgomery County Regional Airport ""","""CKV""= ""Clarksville-Montgomery County Regional Airport """
CLC,Clear Lake Metroport,29.5569,-95.137497,,''CLC''=''Clear Lake Metroport'',,"""","CLC""= ""Clear Lake Metroport ""","""CLC""= ""Clear Lake Metroport """
CLD,McClellan-Palomar Airport,33.0742,-117.1648,,''CLD''=''McClellan-Palomar Airport'',,"""","CLD""= ""McClellan-Palomar Airport ""","""CLD""= ""McClellan-Palomar Airport """
CLE,Cleveland Hopkins Intl,41.411689,-81.849794,,''CLE''=''Cleveland Hopkins Intl'',,"""","CLE""= ""Cleveland Hopkins Intl ""","""CLE""= ""Cleveland Hopkins Intl """
CLL,Easterwood Fld,30.588583,-96.363833,,''CLL''=''Easterwood Fld'',,"""","CLL""= ""Easterwood Fld ""","""CLL""= ""Easterwood Fld """
CLM,William R Fairchild International Airport,48.1202,-123.5,,''CLM''=''William R Fairchild International Airport'',,"""","CLM""= ""William R Fairchild International Airport ""","""CLM""= ""William R Fairchild International Airport """
CLT,Charlotte Douglas Intl,35.214,-80.943139,,''CLT''=''Charlotte Douglas Intl'',,"""","CLT""= ""Charlotte Douglas Intl ""","""CLT""= ""Charlotte Douglas Intl """
CLW,Clearwater Air Park,27.9764722,-82.7586667,,''CLW''=''Clearwater Air Park'',,"""","CLW""= ""Clearwater Air Park ""","""CLW""= ""Clearwater Air Park """
CMH,Port Columbus Intl,39.997972,-82.891889,,''CMH''=''Port Columbus Intl'',,"""","CMH""= ""Port Columbus Intl ""","""CMH""= ""Port Columbus Intl """
CMI,Champaign,40.03925,-88.278056,,''CMI''=''Champaign'',,"""","CMI""= ""Champaign ""","""CMI""= ""Champaign """
CMX,Houghton County Memorial Airport,47.1684,-88.4891,,''CMX''=''Houghton County Memorial Airport'',,"""","CMX""= ""Houghton County Memorial Airport ""","""CMX""= ""Houghton County Memorial Airport """
CNM,Cavern City Air Terminal,32.337472,-104.263278,,''CNM''=''Cavern City Air Terminal'',,"""","CNM""= ""Cavern City Air Terminal ""","""CNM""= ""Cavern City Air Terminal """
CNW,Tstc Waco,31.637831,-97.074139,,''CNW''=''Tstc Waco'',,"""","CNW""= ""Tstc Waco ""","""CNW""= ""Tstc Waco """
CNY,Canyonlands Field,38.755,-109.754722,,''CNY''=''Canyonlands Field'',,"""","CNY""= ""Canyonlands Field ""","""CNY""= ""Canyonlands Field """
COD,Yellowstone Rgnl,44.520194,-109.023806,,''COD''=''Yellowstone Rgnl'',,"""","COD""= ""Yellowstone Rgnl ""","""COD""= ""Yellowstone Rgnl """
COF,Patrick Afb,28.234922,-80.610125,,''COF''=''Patrick Afb'',,"""","COF""= ""Patrick Afb ""","""COF""= ""Patrick Afb """
CON,Concord Municipal,43.20267,-71.50233,,''CON''=''Concord Municipal'',,"""","CON""= ""Concord Municipal ""","""CON""= ""Concord Municipal """
COS,City Of Colorado Springs Muni,38.805805,-104.700778,,''COS''=''City Of Colorado Springs Muni'',,"""","COS""= ""City Of Colorado Springs Muni ""","""COS""= ""City Of Colorado Springs Muni """
COT,Cotulla Lasalle Co,28.456694,-99.220294,,''COT''=''Cotulla Lasalle Co'',,"""","COT""= ""Cotulla Lasalle Co ""","""COT""= ""Cotulla Lasalle Co """
COU,Columbia Rgnl,38.818094,-92.219631,,''COU''=''Columbia Rgnl'',,"""","COU""= ""Columbia Rgnl ""","""COU""= ""Columbia Rgnl """
CPR,Natrona Co Intl,42.908,-106.464417,,''CPR''=''Natrona Co Intl'',,"""","CPR""= ""Natrona Co Intl ""","""CPR""= ""Natrona Co Intl """
CPS,St. Louis Downtown Airport,38.5707244,-90.1562211,,''CPS''=''St. Louis Downtown Airport'',,"""","CPS""= ""St. Louis Downtown Airport ""","""CPS""= ""St. Louis Downtown Airport """
CRE,Grand Strand Airport,33.81175,-78.7239444,,''CRE''=''Grand Strand Airport'',,"""","CRE""= ""Grand Strand Airport ""","""CRE""= ""Grand Strand Airport """
CRP,Corpus Christi Intl,27.770361,-97.501222,,''CRP''=''Corpus Christi Intl'',,"""","CRP""= ""Corpus Christi Intl ""","""CRP""= ""Corpus Christi Intl """
CRW,Yeager,38.373147,-81.593189,,''CRW''=''Yeager'',,"""","CRW""= ""Yeager ""","""CRW""= ""Yeager """
CSG,Columbus Metropolitan Airport,32.5163333,-84.9388611,,''CSG''=''Columbus Metropolitan Airport'',,"""","CSG""= ""Columbus Metropolitan Airport ""","""CSG""= ""Columbus Metropolitan Airport """
CTB,Cut Bank Muni,48.608353,-112.376144,,''CTB''=''Cut Bank Muni'',,"""","CTB""= ""Cut Bank Muni ""","""CTB""= ""Cut Bank Muni """
CTH,Chester County G O Carlson Airport,39.9789,-75.8654,,''CTH''=''Chester County G O Carlson Airport'',,"""","CTH""= ""Chester County G O Carlson Airport ""","""CTH""= ""Chester County G O Carlson Airport """
CTJ,West Georgia Regional Airport - O V Gray Field,33.6316964,-85.1522641,,''CTJ''=''West Georgia Regional Airport - O V Gray Field'',,"""","CTJ""= ""West Georgia Regional Airport - O V Gray Field ""","""CTJ""= ""West Georgia Regional Airport - O V Gray Field """
CTY,Cross City,29.6355278,-83.10475,,''CTY''=''Cross City'',,"""","CTY""= ""Cross City ""","""CTY""= ""Cross City """
CVG,Cincinnati Northern Kentucky Intl,39.048836,-84.667822,,''CVG''=''Cincinnati Northern Kentucky Intl'',,"""","CVG""= ""Cincinnati Northern Kentucky Intl ""","""CVG""= ""Cincinnati Northern Kentucky Intl """
CVN,Clovis Muni,34.425139,-103.079278,,''CVN''=''Clovis Muni'',,"""","CVN""= ""Clovis Muni ""","""CVN""= ""Clovis Muni """
CVS,Cannon Afb,34.382775,-103.322147,,''CVS''=''Cannon Afb'',,"""","CVS""= ""Cannon Afb ""","""CVS""= ""Cannon Afb """
CVX,Charlevoix Municipal Airport,45.3047778,-85.2753333,,''CVX''=''Charlevoix Municipal Airport'',,"""","CVX""= ""Charlevoix Municipal Airport ""","""CVX""= ""Charlevoix Municipal Airport """
CWA,Central Wisconsin,44.772726,-89.646635,,''CWA''=''Central Wisconsin'',,"""","CWA""= ""Central Wisconsin ""","""CWA""= ""Central Wisconsin """
CWI,Clinton Municipal,41.83075,-90.3289722,,''CWI''=''Clinton Municipal'',,"""","CWI""= ""Clinton Municipal ""","""CWI""= ""Clinton Municipal """
CXF,Coldfoot Airport,67.251389,-150.176111,,''CXF''=''Coldfoot Airport'',,"""","CXF""= ""Coldfoot Airport ""","""CXF""= ""Coldfoot Airport """
CXL,Calexico Intl,32.669502,-115.51333,,''CXL''=''Calexico Intl'',,"""","CXL""= ""Calexico Intl ""","""CXL""= ""Calexico Intl """
CXO,Lone Star Executive,30.351833,-95.414467,,''CXO''=''Lone Star Executive'',,"""","CXO""= ""Lone Star Executive ""","""CXO""= ""Lone Star Executive """
CXY,Capital City Airport,40.2171389,-76.8513611,,''CXY''=''Capital City Airport'',,"""","CXY""= ""Capital City Airport ""","""CXY""= ""Capital City Airport """
CYF,Chefornak Airport,60.149167,-164.285556,,''CYF''=''Chefornak Airport'',,"""","CYF""= ""Chefornak Airport ""","""CYF""= ""Chefornak Airport """
CYM,Chatham Seaplane Base,57.515,-134.946111,,''CYM''=''Chatham Seaplane Base'',,"""","CYM""= ""Chatham Seaplane Base ""","""CYM""= ""Chatham Seaplane Base """
CYS,Cheyenne Rgnl Jerry Olson Fld,41.155722,-104.811839,,''CYS''=''Cheyenne Rgnl Jerry Olson Fld'',,"""","CYS""= ""Cheyenne Rgnl Jerry Olson Fld ""","""CYS""= ""Cheyenne Rgnl Jerry Olson Fld """
CYT,Yakataga Airport,60.081901,-142.493611,,''CYT''=''Yakataga Airport'',,"""","CYT""= ""Yakataga Airport ""","""CYT""= ""Yakataga Airport """
CZF,Cape Romanzof Lrrs,61.780297,-166.038747,,''CZF''=''Cape Romanzof Lrrs'',,"""","CZF""= ""Cape Romanzof Lrrs ""","""CZF""= ""Cape Romanzof Lrrs """
CZN,Chisana Airport,62.071111,-142.048333,,''CZN''=''Chisana Airport'',,"""","CZN""= ""Chisana Airport ""","""CZN""= ""Chisana Airport """
DAB,Daytona Beach Intl,29.179917,-81.058056,,''DAB''=''Daytona Beach Intl'',,"""","DAB""= ""Daytona Beach Intl ""","""DAB""= ""Daytona Beach Intl """
DAL,Dallas Love Fld,32.847111,-96.851778,,''DAL''=''Dallas Love Fld'',,"""","DAL""= ""Dallas Love Fld ""","""DAL""= ""Dallas Love Fld """
DAY,James M Cox Dayton Intl,39.902375,-84.219375,,''DAY''=''James M Cox Dayton Intl'',,"""","DAY""= ""James M Cox Dayton Intl ""","""DAY""= ""James M Cox Dayton Intl """
DBQ,Dubuque Rgnl,42.402,-90.709472,,''DBQ''=''Dubuque Rgnl'',,"""","DBQ""= ""Dubuque Rgnl ""","""DBQ""= ""Dubuque Rgnl """
DCA,Ronald Reagan Washington Natl,38.852083,-77.037722,,''DCA''=''Ronald Reagan Washington Natl'',,"""","DCA""= ""Ronald Reagan Washington Natl ""","""DCA""= ""Ronald Reagan Washington Natl """
DDC,Dodge City Regional Airport,37.7634,-99.9656,,''DDC''=''Dodge City Regional Airport'',,"""","DDC""= ""Dodge City Regional Airport ""","""DDC""= ""Dodge City Regional Airport """
DEC,Decatur,39.834564,-88.865689,,''DEC''=''Decatur'',,"""","DEC""= ""Decatur ""","""DEC""= ""Decatur """
DEN,Denver Intl,39.861656,-104.673178,,''DEN''=''Denver Intl'',,"""","DEN""= ""Denver Intl ""","""DEN""= ""Denver Intl """
DET,Coleman A Young Muni,42.409195,-83.009861,,''DET''=''Coleman A Young Muni'',,"""","DET""= ""Coleman A Young Muni ""","""DET""= ""Coleman A Young Muni """
DFW,Dallas Fort Worth Intl,32.896828,-97.037997,,''DFW''=''Dallas Fort Worth Intl'',,"""","DFW""= ""Dallas Fort Worth Intl ""","""DFW""= ""Dallas Fort Worth Intl """
DGL,Douglas Municipal Airport,31.3426028,-109.5064544,,''DGL''=''Douglas Municipal Airport'',,"""","DGL""= ""Douglas Municipal Airport ""","""DGL""= ""Douglas Municipal Airport """
DHN,Dothan Rgnl,31.321339,-85.449628,,''DHN''=''Dothan Rgnl'',,"""","DHN""= ""Dothan Rgnl ""","""DHN""= ""Dothan Rgnl """
DHT,Dalhart Muni,36.022586,-102.547278,,''DHT''=''Dalhart Muni'',,"""","DHT""= ""Dalhart Muni ""","""DHT""= ""Dalhart Muni """
DIK,Dickinson Theodore Roosevelt Regional Airport,46.7975,-102.801944,,''DIK''=''Dickinson Theodore Roosevelt Regional Airport'',,"""","DIK""= ""Dickinson Theodore Roosevelt Regional Airport ""","""DIK""= ""Dickinson Theodore Roosevelt Regional Airport """
DKB,De Kalb Taylor Municipal Airport,41.9338342,-88.7056864,,''DKB''=''De Kalb Taylor Municipal Airport'',,"""","DKB""= ""De Kalb Taylor Municipal Airport ""","""DKB""= ""De Kalb Taylor Municipal Airport """
DKK,Chautauqua County-Dunkirk Airport,42.4933353,-79.2720417,,''DKK''=''Chautauqua County-Dunkirk Airport'',,"""","DKK""= ""Chautauqua County-Dunkirk Airport ""","""DKK""= ""Chautauqua County-Dunkirk Airport """
DKX,Knoxville Downtown Island Airport,35.9638333,-83.8736667,,''DKX''=''Knoxville Downtown Island Airport'',,"""","DKX""= ""Knoxville Downtown Island Airport ""","""DKX""= ""Knoxville Downtown Island Airport """
DLF,Laughlin Afb,29.359486,-100.777975,,''DLF''=''Laughlin Afb'',,"""","DLF""= ""Laughlin Afb ""","""DLF""= ""Laughlin Afb """
DLG,Dillingham,59.044667,-158.5055,,''DLG''=''Dillingham'',,"""","DLG""= ""Dillingham ""","""DLG""= ""Dillingham """
DLH,Duluth Intl,46.842091,-92.193649,,''DLH''=''Duluth Intl'',,"""","DLH""= ""Duluth Intl ""","""DLH""= ""Duluth Intl """
DLL,Baraboo Wisconsin Dells Airport,43.5217843,-89.7709266,,''DLL''=''Baraboo Wisconsin Dells Airport'',,"""","DLL""= ""Baraboo Wisconsin Dells Airport ""","""DLL""= ""Baraboo Wisconsin Dells Airport """
DMA,Davis Monthan Afb,32.166467,-110.883144,,''DMA''=''Davis Monthan Afb'',,"""","DMA""= ""Davis Monthan Afb ""","""DMA""= ""Davis Monthan Afb """
DNL,Daniel Field Airport,33.4665028,-82.0393808,,''DNL''=''Daniel Field Airport'',,"""","DNL""= ""Daniel Field Airport ""","""DNL""= ""Daniel Field Airport """
DNN,Dalton Municipal Airport,34.7229444,-84.87025,,''DNN''=''Dalton Municipal Airport'',,"""","DNN""= ""Dalton Municipal Airport ""","""DNN""= ""Dalton Municipal Airport """
DOV,Dover Afb,39.129539,-75.465958,,''DOV''=''Dover Afb'',,"""","DOV""= ""Dover Afb ""","""DOV""= ""Dover Afb """
DPA,Dupage,41.907778,-88.248611,,''DPA''=''Dupage'',,"""","DPA""= ""Dupage ""","""DPA""= ""Dupage """
DQH,Douglas Municipal Airport,31.4767385,-82.8605664,,''DQH''=''Douglas Municipal Airport'',,"""","DQH""= ""Douglas Municipal Airport ""","""DQH""= ""Douglas Municipal Airport """
DRG,Deering Airport,66.0696,-162.766,,''DRG''=''Deering Airport'',,"""","DRG""= ""Deering Airport ""","""DRG""= ""Deering Airport """
DRI,Beauregard Rgnl,30.831722,-93.339917,,''DRI''=''Beauregard Rgnl'',,"""","DRI""= ""Beauregard Rgnl ""","""DRI""= ""Beauregard Rgnl """
DRM,Drummond Island Airport,46.0093114,-83.7439342,,''DRM''=''Drummond Island Airport'',,"""","DRM""= ""Drummond Island Airport ""","""DRM""= ""Drummond Island Airport """
DRO,Durango La Plata Co,37.151516,-107.75377,,''DRO''=''Durango La Plata Co'',,"""","DRO""= ""Durango La Plata Co ""","""DRO""= ""Durango La Plata Co """
DRT,Del Rio Intl,29.374208,-100.927158,,''DRT''=''Del Rio Intl'',,"""","DRT""= ""Del Rio Intl ""","""DRT""= ""Del Rio Intl """
DSM,Des Moines Intl,41.533972,-93.663083,,''DSM''=''Des Moines Intl'',,"""","DSM""= ""Des Moines Intl ""","""DSM""= ""Des Moines Intl """
DTA,Delta Municipal Airport,39.3806386,-112.5077147,,''DTA''=''Delta Municipal Airport'',,"""","DTA""= ""Delta Municipal Airport ""","""DTA""= ""Delta Municipal Airport """
DTS,Destin,30.4000611,-86.4714772,,''DTS''=''Destin'',,"""","DTS""= ""Destin ""","""DTS""= ""Destin """
DTW,Detroit Metro Wayne Co,42.212444,-83.353389,,''DTW''=''Detroit Metro Wayne Co'',,"""","DTW""= ""Detroit Metro Wayne Co ""","""DTW""= ""Detroit Metro Wayne Co """
DUC,Halliburton Field Airport,34.4713056,-97.9598611,,''DUC''=''Halliburton Field Airport'',,"""","DUC""= ""Halliburton Field Airport ""","""DUC""= ""Halliburton Field Airport """
DUG,Bisbee Douglas Intl,31.469028,-109.603667,,''DUG''=''Bisbee Douglas Intl'',,"""","DUG""= ""Bisbee Douglas Intl ""","""DUG""= ""Bisbee Douglas Intl """
DUJ,DuBois Regional Airport,41.1783,-78.8987,,''DUJ''=''DuBois Regional Airport'',,"""","DUJ""= ""DuBois Regional Airport ""","""DUJ""= ""DuBois Regional Airport """
DUT,Unalaska,53.900139,-166.5435,,''DUT''=''Unalaska'',,"""","DUT""= ""Unalaska ""","""DUT""= ""Unalaska """
DVL,Devils Lake Regional Airport,48.114444,-98.908611,,''DVL''=''Devils Lake Regional Airport'',,"""","DVL""= ""Devils Lake Regional Airport ""","""DVL""= ""Devils Lake Regional Airport """
DVT,Deer Valley Municipal Airport,33.4117,112.457,,''DVT''=''Deer Valley Municipal Airport'',,"""","DVT""= ""Deer Valley Municipal Airport ""","""DVT""= ""Deer Valley Municipal Airport """
DWA,Yolo County Airport,38.5793889,-121.8569444,,''DWA''=''Yolo County Airport'',,"""","DWA""= ""Yolo County Airport ""","""DWA""= ""Yolo County Airport """
DWH,David Wayne Hooks Field,30.063746,-95.554276,,''DWH''=''David Wayne Hooks Field'',,"""","DWH""= ""David Wayne Hooks Field ""","""DWH""= ""David Wayne Hooks Field """
DWS,Orlando,28.398,-81.57,,''DWS''=''Orlando'',,"""","DWS""= ""Orlando ""","""DWS""= ""Orlando """
DXR,Danbury Municipal Airport,41.3715353,-73.4821906,,''DXR''=''Danbury Municipal Airport'',,"""","DXR""= ""Danbury Municipal Airport ""","""DXR""= ""Danbury Municipal Airport """
DYS,Dyess Afb,32.420756,-99.8546,,''DYS''=''Dyess Afb'',,"""","DYS""= ""Dyess Afb ""","""DYS""= ""Dyess Afb """
E25,Wickenburg Municipal Airport,33.96889877,-112.7990036,,''E25''=''Wickenburg Municipal Airport'',,"""","E25""= ""Wickenburg Municipal Airport ""","""E25""= ""Wickenburg Municipal Airport """
E51,Bagdad Airport,34.5958528,-113.170195,,''E51''=''Bagdad Airport'',,"""","E51""= ""Bagdad Airport ""","""E51""= ""Bagdad Airport """
E55,Ocean Ridge Airport,38.8016111,-123.5306389,,''E55''=''Ocean Ridge Airport'',,"""","E55""= ""Ocean Ridge Airport ""","""E55""= ""Ocean Ridge Airport """
E63,Gila Bend Municipal Airport,32.960169,-112.673636,,''E63''=''Gila Bend Municipal Airport'',,"""","E63""= ""Gila Bend Municipal Airport ""","""E63""= ""Gila Bend Municipal Airport """
E91,Chinle Municipal Airport,36.1108806,-109.5754222,,''E91''=''Chinle Municipal Airport'',,"""","E91""= ""Chinle Municipal Airport ""","""E91""= ""Chinle Municipal Airport """
EAA,Eagle Airport,64.778056,-141.149722,,''EAA''=''Eagle Airport'',,"""","EAA""= ""Eagle Airport ""","""EAA""= ""Eagle Airport """
EAR,Kearney Municipal Airport,40.727,-99.0068,,''EAR''=''Kearney Municipal Airport'',,"""","EAR""= ""Kearney Municipal Airport ""","""EAR""= ""Kearney Municipal Airport """
EAT,Pangborn Field,47.398,-120.206,,''EAT''=''Pangborn Field'',,"""","EAT""= ""Pangborn Field ""","""EAT""= ""Pangborn Field """
EAU,Chippewa Valley Regional Airport,44.8658,-91.4843,,''EAU''=''Chippewa Valley Regional Airport'',,"""","EAU""= ""Chippewa Valley Regional Airport ""","""EAU""= ""Chippewa Valley Regional Airport """
ECA,Iosco County,44.311,-83.422,,''ECA''=''Iosco County'',,"""","ECA""= ""Iosco County ""","""ECA""= ""Iosco County """
ECG,Elizabeth City Cgas Rgnl,36.260581,-76.174572,,''ECG''=''Elizabeth City Cgas Rgnl'',,"""","ECG""= ""Elizabeth City Cgas Rgnl ""","""ECG""= ""Elizabeth City Cgas Rgnl """
ECP,Panama City-NW Florida Bea.,30.3417,-85.7973,,''ECP''=''Panama City-NW Florida Bea.'',,"""","ECP""= ""Panama City-NW Florida Bea. ""","""ECP""= ""Panama City-NW Florida Bea. """
EDF,Elmendorf Afb,61.250986,-149.806503,,''EDF''=''Elmendorf Afb'',,"""","EDF""= ""Elmendorf Afb ""","""EDF""= ""Elmendorf Afb """
EDW,Edwards Afb,34.905417,-117.883739,,''EDW''=''Edwards Afb'',,"""","EDW""= ""Edwards Afb ""","""EDW""= ""Edwards Afb """
EEK,Eek Airport,60.213611,-162.043889,,''EEK''=''Eek Airport'',,"""","EEK""= ""Eek Airport ""","""EEK""= ""Eek Airport """
EEN,Dillant Hopkins Airport,72.270833,42.898333,,''EEN''=''Dillant Hopkins Airport'',,"""","EEN""= ""Dillant Hopkins Airport ""","""EEN""= ""Dillant Hopkins Airport """
EET,Shelby County Airport,33.1777778,-86.7832222,,''EET''=''Shelby County Airport'',,"""","EET""= ""Shelby County Airport ""","""EET""= ""Shelby County Airport """
EFD,Ellington Fld,29.607333,-95.15875,,''EFD''=''Ellington Fld'',,"""","EFD""= ""Ellington Fld ""","""EFD""= ""Ellington Fld """
EGA,Eagle County Airport,39.6427611,-106.9159347,,''EGA''=''Eagle County Airport'',,"""","EGA""= ""Eagle County Airport ""","""EGA""= ""Eagle County Airport """
EGE,Eagle Co Rgnl,39.642556,-106.917694,,''EGE''=''Eagle Co Rgnl'',,"""","EGE""= ""Eagle Co Rgnl ""","""EGE""= ""Eagle Co Rgnl """
EGT,Wellington Municipal,37.39411,-97.423225,,''EGT''=''Wellington Municipal'',,"""","EGT""= ""Wellington Municipal ""","""EGT""= ""Wellington Municipal """
EGV,Eagle River,45.932333,-89.268283,,''EGV''=''Eagle River'',,"""","EGV""= ""Eagle River ""","""EGV""= ""Eagle River """
EGX,Egegik Airport,58.185556,-157.375556,,''EGX''=''Egegik Airport'',,"""","EGX""= ""Egegik Airport ""","""EGX""= ""Egegik Airport """
EHM,Cape Newenham Lrrs,58.646428,-162.062778,,''EHM''=''Cape Newenham Lrrs'',,"""","EHM""= ""Cape Newenham Lrrs ""","""EHM""= ""Cape Newenham Lrrs """
EIL,Eielson Afb,64.665667,-147.1015,,''EIL''=''Eielson Afb'',,"""","EIL""= ""Eielson Afb ""","""EIL""= ""Eielson Afb """
EKI,Elkhart Municipal,41.719444,-86.003333,,''EKI''=''Elkhart Municipal'',,"""","EKI""= ""Elkhart Municipal ""","""EKI""= ""Elkhart Municipal """
EKN,Elkins Randolph Co Jennings Randolph,38.889444,-79.857139,,''EKN''=''Elkins Randolph Co Jennings Randolph'',,"""","EKN""= ""Elkins Randolph Co Jennings Randolph ""","""EKN""= ""Elkins Randolph Co Jennings Randolph """
EKO,Elko Regional Airport,40.8249,-115.792,,''EKO''=''Elko Regional Airport'',,"""","EKO""= ""Elko Regional Airport ""","""EKO""= ""Elko Regional Airport """
ELD,South Arkansas Rgnl At Goodwin Fld,33.220972,-92.813278,,''ELD''=''South Arkansas Rgnl At Goodwin Fld'',,"""","ELD""= ""South Arkansas Rgnl At Goodwin Fld ""","""ELD""= ""South Arkansas Rgnl At Goodwin Fld """
ELI,Elim Airport,64.615,-162.270556,,''ELI''=''Elim Airport'',,"""","ELI""= ""Elim Airport ""","""ELI""= ""Elim Airport """
ELM,Elmira Corning Rgnl,42.159889,-76.891611,,''ELM''=''Elmira Corning Rgnl'',,"""","ELM""= ""Elmira Corning Rgnl ""","""ELM""= ""Elmira Corning Rgnl """
ELP,El Paso Intl,31.80725,-106.377583,,''ELP''=''El Paso Intl'',,"""","ELP""= ""El Paso Intl ""","""ELP""= ""El Paso Intl """
ELV,Elfin Cove Seaplane Base,58.195278,-136.3475,,''ELV''=''Elfin Cove Seaplane Base'',,"""","ELV""= ""Elfin Cove Seaplane Base ""","""ELV""= ""Elfin Cove Seaplane Base """
ELY,Ely Airport,39.299722,-114.841944,,''ELY''=''Ely Airport'',,"""","ELY""= ""Ely Airport ""","""ELY""= ""Ely Airport """
EMK,Emmonak Airport,62.786111,-164.490833,,''EMK''=''Emmonak Airport'',,"""","EMK""= ""Emmonak Airport ""","""EMK""= ""Emmonak Airport """
EMP,Emporia Municipal Airport,38.3321,-96.1912,,''EMP''=''Emporia Municipal Airport'',,"""","EMP""= ""Emporia Municipal Airport ""","""EMP""= ""Emporia Municipal Airport """
ENA,Kenai Muni,60.573111,-151.245,,''ENA''=''Kenai Muni'',,"""","ENA""= ""Kenai Muni ""","""ENA""= ""Kenai Muni """
END,Vance Afb,36.339167,-97.9165,,''END''=''Vance Afb'',,"""","END""= ""Vance Afb ""","""END""= ""Vance Afb """
ENV,Wendover,40.718694,-114.030889,,''ENV''=''Wendover'',,"""","ENV""= ""Wendover ""","""ENV""= ""Wendover """
ENW,Kenosha Regional Airport,42.5956944,-87.9278056,,''ENW''=''Kenosha Regional Airport'',,"""","ENW""= ""Kenosha Regional Airport ""","""ENW""= ""Kenosha Regional Airport """
EOK,Keokuk Municipal Airport,40.4599078,-91.4285011,,''EOK''=''Keokuk Municipal Airport'',,"""","EOK""= ""Keokuk Municipal Airport ""","""EOK""= ""Keokuk Municipal Airport """
EPM,Eastport Municipal Airport,44.9101111,-67.0126944,,''EPM''=''Eastport Municipal Airport'',,"""","EPM""= ""Eastport Municipal Airport ""","""EPM""= ""Eastport Municipal Airport """
EQY,Monroe Reqional Airport,35.01833,-80.62001,,''EQY''=''Monroe Reqional Airport'',,"""","EQY""= ""Monroe Reqional Airport ""","""EQY""= ""Monroe Reqional Airport """
ERI,Erie Intl Tom Ridge Fld,42.082022,-80.176217,,''ERI''=''Erie Intl Tom Ridge Fld'',,"""","ERI""= ""Erie Intl Tom Ridge Fld ""","""ERI""= ""Erie Intl Tom Ridge Fld """
ERV,Kerrville Municipal Airport,29.9766667,-99.0854722,,''ERV''=''Kerrville Municipal Airport'',,"""","ERV""= ""Kerrville Municipal Airport ""","""ERV""= ""Kerrville Municipal Airport """
ERY,Luce County Airport,46.311199,-85.457298,,''ERY''=''Luce County Airport'',,"""","ERY""= ""Luce County Airport ""","""ERY""= ""Luce County Airport """
ESC,Delta County Airport,45.722778,-87.093611,,''ESC''=''Delta County Airport'',,"""","ESC""= ""Delta County Airport ""","""ESC""= ""Delta County Airport """
ESD,Orcas Island Airport,48.708056,-122.910556,,''ESD''=''Orcas Island Airport'',,"""","ESD""= ""Orcas Island Airport ""","""ESD""= ""Orcas Island Airport """
ESF,Esler Rgnl,31.394903,-92.295772,,''ESF''=''Esler Rgnl'',,"""","ESF""= ""Esler Rgnl ""","""ESF""= ""Esler Rgnl """
ESN,Easton-Newnam Field Airport,38.8041667,-76.069,,''ESN''=''Easton-Newnam Field Airport'',,"""","ESN""= ""Easton-Newnam Field Airport ""","""ESN""= ""Easton-Newnam Field Airport """
EUG,Mahlon Sweet Fld,44.124583,-123.211972,,''EUG''=''Mahlon Sweet Fld'',,"""","EUG""= ""Mahlon Sweet Fld ""","""EUG""= ""Mahlon Sweet Fld """
EVV,Evansville Regional,38.036997,-87.532364,,''EVV''=''Evansville Regional'',,"""","EVV""= ""Evansville Regional ""","""EVV""= ""Evansville Regional """
EWB,New Bedford Regional Airport,41.6761,-70.9569,,''EWB''=''New Bedford Regional Airport'',,"""","EWB""= ""New Bedford Regional Airport ""","""EWB""= ""New Bedford Regional Airport """
EWN,Craven Co Rgnl,35.072972,-77.042944,,''EWN''=''Craven Co Rgnl'',,"""","EWN""= ""Craven Co Rgnl ""","""EWN""= ""Craven Co Rgnl """
EWR,Newark Liberty Intl,40.6925,-74.168667,,''EWR''=''Newark Liberty Intl'',,"""","EWR""= ""Newark Liberty Intl ""","""EWR""= ""Newark Liberty Intl """
EXI,Excursion Inlet Seaplane Base,58.420556,-135.449167,,''EXI''=''Excursion Inlet Seaplane Base'',,"""","EXI""= ""Excursion Inlet Seaplane Base ""","""EXI""= ""Excursion Inlet Seaplane Base """
EYW,Key West Intl,24.556111,-81.759556,,''EYW''=''Key West Intl'',,"""","EYW""= ""Key West Intl ""","""EYW""= ""Key West Intl """
F57,Seaplane Base,28.0575,-81.7628056,,''F57''=''Seaplane Base'',,"""","F57""= ""Seaplane Base ""","""F57""= ""Seaplane Base """
FAF,Felker Aaf,37.1325,-76.608841,,''FAF''=''Felker Aaf'',,"""","FAF""= ""Felker Aaf ""","""FAF""= ""Felker Aaf """
FAI,Fairbanks Intl,64.815114,-147.856267,,''FAI''=''Fairbanks Intl'',,"""","FAI""= ""Fairbanks Intl ""","""FAI""= ""Fairbanks Intl """
FAR,Hector International Airport,46.92065,-96.8157639,,''FAR''=''Hector International Airport'',,"""","FAR""= ""Hector International Airport ""","""FAR""= ""Hector International Airport """
FAT,Fresno Yosemite Intl,36.776194,-119.71814,,''FAT''=''Fresno Yosemite Intl'',,"""","FAT""= ""Fresno Yosemite Intl ""","""FAT""= ""Fresno Yosemite Intl """
FAY,Fayetteville Regional Grannis Field,34.9912,-78.8803,,''FAY''=''Fayetteville Regional Grannis Field'',,"""","FAY""= ""Fayetteville Regional Grannis Field ""","""FAY""= ""Fayetteville Regional Grannis Field """
FBG,Fredericksburg Amtrak Station,38.298416,-77.456875,,''FBG''=''Fredericksburg Amtrak Station'',,"""","FBG""= ""Fredericksburg Amtrak Station ""","""FBG""= ""Fredericksburg Amtrak Station """
FBK,Ladd Aaf,64.8375,-147.614444,,''FBK''=''Ladd Aaf'',,"""","FBK""= ""Ladd Aaf ""","""FBK""= ""Ladd Aaf """
FBS,Friday Harbor Seaplane Base,48.537222,-123.009722,,''FBS''=''Friday Harbor Seaplane Base'',,"""","FBS""= ""Friday Harbor Seaplane Base ""","""FBS""= ""Friday Harbor Seaplane Base """
FCA,Glacier Park Intl,48.310472,-114.256,,''FCA''=''Glacier Park Intl'',,"""","FCA""= ""Glacier Park Intl ""","""FCA""= ""Glacier Park Intl """
FCS,Butts Aaf,38.678394,-104.756581,,''FCS''=''Butts Aaf'',,"""","FCS""= ""Butts Aaf ""","""FCS""= ""Butts Aaf """
FDY,Findlay Airport,41.0120278,-83.6686111,,''FDY''=''Findlay Airport'',,"""","FDY""= ""Findlay Airport ""","""FDY""= ""Findlay Airport """
FFA,First Flight Airport,36.02,-75.67,,''FFA''=''First Flight Airport'',,"""","FFA""= ""First Flight Airport ""","""FFA""= ""First Flight Airport """
FFC,Atlanta Regional Airport - Falcon Field,33.35725,-84.5718333,,''FFC''=''Atlanta Regional Airport - Falcon Field'',,"""","FFC""= ""Atlanta Regional Airport - Falcon Field ""","""FFC""= ""Atlanta Regional Airport - Falcon Field """
FFO,Wright Patterson Afb,39.826111,-84.048332,,''FFO''=''Wright Patterson Afb'',,"""","FFO""= ""Wright Patterson Afb ""","""FFO""= ""Wright Patterson Afb """
FFT,Capital City Airport,38.1819722,-84.9061389,,''FFT''=''Capital City Airport'',,"""","FFT""= ""Capital City Airport ""","""FFT""= ""Capital City Airport """
FFZ,Mesa Falcon Field,33.46080017,-111.7279968,,''FFZ''=''Mesa Falcon Field'',,"""","FFZ""= ""Mesa Falcon Field ""","""FFZ""= ""Mesa Falcon Field """
FHU,Sierra Vista Muni Libby Aaf,31.588472,-110.344389,,''FHU''=''Sierra Vista Muni Libby Aaf'',,"""","FHU""= ""Sierra Vista Muni Libby Aaf ""","""FHU""= ""Sierra Vista Muni Libby Aaf """
FIT,Fitchburg Municipal Airport,42.5541111,-71.7589722,,''FIT''=''Fitchburg Municipal Airport'',,"""","FIT""= ""Fitchburg Municipal Airport ""","""FIT""= ""Fitchburg Municipal Airport """
FKL,Franklin,41.377874,-79.860362,,''FKL''=''Franklin'',,"""","FKL""= ""Franklin ""","""FKL""= ""Franklin """
FLD,Fond Du Lac County Airport,43.7711667,-88.4884167,,''FLD''=''Fond Du Lac County Airport'',,"""","FLD""= ""Fond Du Lac County Airport ""","""FLD""= ""Fond Du Lac County Airport """
FLG,Flagstaff Pulliam Airport,35.140318,-111.6692392,,''FLG''=''Flagstaff Pulliam Airport'',,"""","FLG""= ""Flagstaff Pulliam Airport ""","""FLG""= ""Flagstaff Pulliam Airport """
FLL,Fort Lauderdale Hollywood Intl,26.072583,-80.15275,,''FLL''=''Fort Lauderdale Hollywood Intl'',,"""","FLL""= ""Fort Lauderdale Hollywood Intl ""","""FLL""= ""Fort Lauderdale Hollywood Intl """
FLO,Florence Rgnl,34.185361,-79.723889,,''FLO''=''Florence Rgnl'',,"""","FLO""= ""Florence Rgnl ""","""FLO""= ""Florence Rgnl """
FLV,Sherman Aaf,39.368332,-94.914686,,''FLV''=''Sherman Aaf'',,"""","FLV""= ""Sherman Aaf ""","""FLV""= ""Sherman Aaf """
FME,Tipton,39.085386,-76.759414,,''FME''=''Tipton'',,"""","FME""= ""Tipton ""","""FME""= ""Tipton """
FMH,Otis Angb,41.658439,-70.521417,,''FMH''=''Otis Angb'',,"""","FMH""= ""Otis Angb ""","""FMH""= ""Otis Angb """
FMN,Four Corners Rgnl,36.74125,-108.229944,,''FMN''=''Four Corners Rgnl'',,"""","FMN""= ""Four Corners Rgnl ""","""FMN""= ""Four Corners Rgnl """
FMY,Page Fld,26.586611,-81.86325,,''FMY''=''Page Fld'',,"""","FMY""= ""Page Fld ""","""FMY""= ""Page Fld """
FNL,Fort Collins Loveland Muni,40.451828,-105.011336,,''FNL''=''Fort Collins Loveland Muni'',,"""","FNL""= ""Fort Collins Loveland Muni ""","""FNL""= ""Fort Collins Loveland Muni """
FNR,Funter Bay Seaplane Base,58.254444,-134.897778,,''FNR''=''Funter Bay Seaplane Base'',,"""","FNR""= ""Funter Bay Seaplane Base ""","""FNR""= ""Funter Bay Seaplane Base """
FNT,Bishop International,42.965424,-83.743629,,''FNT''=''Bishop International'',,"""","FNT""= ""Bishop International ""","""FNT""= ""Bishop International """
FOD,Fort Dodge Rgnl,42.5512,-94.191842,,''FOD''=''Fort Dodge Rgnl'',,"""","FOD""= ""Fort Dodge Rgnl ""","""FOD""= ""Fort Dodge Rgnl """
FOE,Forbes Fld,38.950944,-95.663611,,''FOE''=''Forbes Fld'',,"""","FOE""= ""Forbes Fld ""","""FOE""= ""Forbes Fld """
FOK,Francis S Gabreski,40.843656,-72.631789,,''FOK''=''Francis S Gabreski'',,"""","FOK""= ""Francis S Gabreski ""","""FOK""= ""Francis S Gabreski """
FRD,Friday Harbor Airport,48.521944,-123.024444,,''FRD''=''Friday Harbor Airport'',,"""","FRD""= ""Friday Harbor Airport ""","""FRD""= ""Friday Harbor Airport """
FRI,Marshall Aaf,39.055275,-96.764453,,''FRI''=''Marshall Aaf'',,"""","FRI""= ""Marshall Aaf ""","""FRI""= ""Marshall Aaf """
FRN,Bryant Ahp,61.266381,-149.653119,,''FRN''=''Bryant Ahp'',,"""","FRN""= ""Bryant Ahp ""","""FRN""= ""Bryant Ahp """
FRP,St Lucie County International Airport,27.497472,-80.372638,,''FRP''=''St Lucie County International Airport'',,"""","FRP""= ""St Lucie County International Airport ""","""FRP""= ""St Lucie County International Airport """
FSD,Sioux Falls,43.582014,-96.741914,,''FSD''=''Sioux Falls'',,"""","FSD""= ""Sioux Falls ""","""FSD""= ""Sioux Falls """
FSI,Henry Post Aaf,34.649833,-98.402167,,''FSI''=''Henry Post Aaf'',,"""","FSI""= ""Henry Post Aaf ""","""FSI""= ""Henry Post Aaf """
FSM,Fort Smith Rgnl,35.336583,-94.367444,,''FSM''=''Fort Smith Rgnl'',,"""","FSM""= ""Fort Smith Rgnl ""","""FSM""= ""Fort Smith Rgnl """
FST,Fort Stockton Pecos Co,30.915667,-102.916139,,''FST''=''Fort Stockton Pecos Co'',,"""","FST""= ""Fort Stockton Pecos Co ""","""FST""= ""Fort Stockton Pecos Co """
FTK,Godman Aaf,37.907058,-85.972106,,''FTK''=''Godman Aaf'',,"""","FTK""= ""Godman Aaf ""","""FTK""= ""Godman Aaf """
FTW,Fort Worth Meacham Intl,32.819778,-97.362444,,''FTW''=''Fort Worth Meacham Intl'',,"""","FTW""= ""Fort Worth Meacham Intl ""","""FTW""= ""Fort Worth Meacham Intl """
FTY,Fulton County Airport Brown Field,33.7791,-84.5214,,''FTY''=''Fulton County Airport Brown Field'',,"""","FTY""= ""Fulton County Airport Brown Field ""","""FTY""= ""Fulton County Airport Brown Field """
FUL,Fullerton Municipal Airport,33.521925,-117.584722,,''FUL''=''Fullerton Municipal Airport'',,"""","FUL""= ""Fullerton Municipal Airport ""","""FUL""= ""Fullerton Municipal Airport """
FWA,Fort Wayne,40.978472,-85.195139,,''FWA''=''Fort Wayne'',,"""","FWA""= ""Fort Wayne ""","""FWA""= ""Fort Wayne """
FXE,Fort Lauderdale Executive,26.197281,-80.170706,,''FXE''=''Fort Lauderdale Executive'',,"""","FXE""= ""Fort Lauderdale Executive ""","""FXE""= ""Fort Lauderdale Executive """
FYU,Fort Yukon,66.571492,-145.250417,,''FYU''=''Fort Yukon'',,"""","FYU""= ""Fort Yukon ""","""FYU""= ""Fort Yukon """
FYV,Drake Fld,36.005094,-94.170059,,''FYV''=''Drake Fld'',,"""","FYV""= ""Drake Fld ""","""FYV""= ""Drake Fld """
FZG,Fitzgerald Municipal Airport,31.6839046,-83.2709036,,''FZG''=''Fitzgerald Municipal Airport'',,"""","FZG""= ""Fitzgerald Municipal Airport ""","""FZG""= ""Fitzgerald Municipal Airport """
GAD,Northeast Alabama Regional Airport,33.9726489,-86.0890834,,''GAD''=''Northeast Alabama Regional Airport'',,"""","GAD""= ""Northeast Alabama Regional Airport ""","""GAD""= ""Northeast Alabama Regional Airport """
GAI,Montgomery County Airpark,39.1006,-77.09576,,''GAI''=''Montgomery County Airpark'',,"""","GAI""= ""Montgomery County Airpark ""","""GAI""= ""Montgomery County Airpark """
GAL,Edward G Pitka Sr,64.736178,-156.937417,,''GAL''=''Edward G Pitka Sr'',,"""","GAL""= ""Edward G Pitka Sr ""","""GAL""= ""Edward G Pitka Sr """
GAM,Gambell Airport,63.7668,-171.733,,''GAM''=''Gambell Airport'',,"""","GAM""= ""Gambell Airport ""","""GAM""= ""Gambell Airport """
GBN,Great Bend Municipal,38.344167,-98.859167,,''GBN''=''Great Bend Municipal'',,"""","GBN""= ""Great Bend Municipal ""","""GBN""= ""Great Bend Municipal """
GCC,Gillette-Campbell County Airport,44.3489167,-105.5393611,,''GCC''=''Gillette-Campbell County Airport'',,"""","GCC""= ""Gillette-Campbell County Airport ""","""GCC""= ""Gillette-Campbell County Airport """
GCK,Garden City Rgnl,37.927528,-100.724417,,''GCK''=''Garden City Rgnl'',,"""","GCK""= ""Garden City Rgnl ""","""GCK""= ""Garden City Rgnl """
GCN,Grand Canyon National Park Airport,35.9523611,-112.1469722,,''GCN''=''Grand Canyon National Park Airport'',,"""","GCN""= ""Grand Canyon National Park Airport ""","""GCN""= ""Grand Canyon National Park Airport """
GCW,Grand Canyon West Airport,35.5925,-113.4859,,''GCW''=''Grand Canyon West Airport'',,"""","GCW""= ""Grand Canyon West Airport ""","""GCW""= ""Grand Canyon West Airport """
GDV,Dawson Community Airport,47.138611,-104.807222,,''GDV''=''Dawson Community Airport'',,"""","GDV""= ""Dawson Community Airport ""","""GDV""= ""Dawson Community Airport """
GDW,Gladwin Zettel Memorial Airport,43.9705893,-84.47502,,''GDW''=''Gladwin Zettel Memorial Airport'',,"""","GDW""= ""Gladwin Zettel Memorial Airport ""","""GDW""= ""Gladwin Zettel Memorial Airport """
GED,Sussex Co,38.689194,-75.358889,,''GED''=''Sussex Co'',,"""","GED""= ""Sussex Co ""","""GED""= ""Sussex Co """
GEG,Spokane Intl,47.619861,-117.533833,,''GEG''=''Spokane Intl'',,"""","GEG""= ""Spokane Intl ""","""GEG""= ""Spokane Intl """
GEU,Glendale Municipal Airport,33.5269167,-112.2951389,,''GEU''=''Glendale Municipal Airport'',,"""","GEU""= ""Glendale Municipal Airport ""","""GEU""= ""Glendale Municipal Airport """
GFK,Grand Forks Intl,47.949256,-97.176111,,''GFK''=''Grand Forks Intl'',,"""","GFK""= ""Grand Forks Intl ""","""GFK""= ""Grand Forks Intl """
GGE,Georgetown County Airport,33.3114018,-79.3203139,,''GGE''=''Georgetown County Airport'',,"""","GGE""= ""Georgetown County Airport ""","""GGE""= ""Georgetown County Airport """
GGG,East Texas Rgnl,32.384014,-94.711486,,''GGG''=''East Texas Rgnl'',,"""","GGG""= ""East Texas Rgnl ""","""GGG""= ""East Texas Rgnl """
GGW,Wokal Field Glasgow International Airport,48.2125,-106.615,,''GGW''=''Wokal Field Glasgow International Airport'',,"""","GGW""= ""Wokal Field Glasgow International Airport ""","""GGW""= ""Wokal Field Glasgow International Airport """
GHG,Marshfield Municipal Airport,42.09825,-70.6721389,,''GHG''=''Marshfield Municipal Airport'',,"""","GHG""= ""Marshfield Municipal Airport ""","""GHG""= ""Marshfield Municipal Airport """
GIF,Gilbert Airport,28.062778,-81.753333,,''GIF''=''Gilbert Airport'',,"""","GIF""= ""Gilbert Airport ""","""GIF""= ""Gilbert Airport """
GJT,Grand Junction Regional,39.122413,-108.526735,,''GJT''=''Grand Junction Regional'',,"""","GJT""= ""Grand Junction Regional ""","""GJT""= ""Grand Junction Regional """
GKN,Gulkana,62.154888,-145.456639,,''GKN''=''Gulkana'',,"""","GKN""= ""Gulkana ""","""GKN""= ""Gulkana """
GKY,Arlington Municipal,32.6638611,-97.0942778,,''GKY''=''Arlington Municipal'',,"""","GKY""= ""Arlington Municipal ""","""GKY""= ""Arlington Municipal """
GLD,Renner Fld,39.370621,-101.698992,,''GLD''=''Renner Fld'',,"""","GLD""= ""Renner Fld ""","""GLD""= ""Renner Fld """
GLH,Mid Delta Regional Airport,33.4829,-90.9856,,''GLH''=''Mid Delta Regional Airport'',,"""","GLH""= ""Mid Delta Regional Airport ""","""GLH""= ""Mid Delta Regional Airport """
GLS,Scholes Intl At Galveston,29.265322,-94.860406,,''GLS''=''Scholes Intl At Galveston'',,"""","GLS""= ""Scholes Intl At Galveston ""","""GLS""= ""Scholes Intl At Galveston """
GLV,Golovin Airport,64.550556,-163.007222,,''GLV''=''Golovin Airport'',,"""","GLV""= ""Golovin Airport ""","""GLV""= ""Golovin Airport """
GNT,Grants Milan Muni,35.167286,-107.901989,,''GNT''=''Grants Milan Muni'',,"""","GNT""= ""Grants Milan Muni ""","""GNT""= ""Grants Milan Muni """
GNU,Goodnews Airport,59.1175,-161.5775,,''GNU''=''Goodnews Airport'',,"""","GNU""= ""Goodnews Airport ""","""GNU""= ""Goodnews Airport """
GNV,Gainesville Rgnl,29.690056,-82.271778,,''GNV''=''Gainesville Rgnl'',,"""","GNV""= ""Gainesville Rgnl ""","""GNV""= ""Gainesville Rgnl """
GON,Groton New London,41.330056,-72.045139,,''GON''=''Groton New London'',,"""","GON""= ""Groton New London ""","""GON""= ""Groton New London """
GPT,Gulfport-Biloxi,30.407278,-89.070111,,''GPT''=''Gulfport-Biloxi'',,"""","GPT""= ""Gulfport-Biloxi ""","""GPT""= ""Gulfport-Biloxi """
GPZ,Grand Rapids Itasca County,47.211111,-93.509722,,''GPZ''=''Grand Rapids Itasca County'',,"""","GPZ""= ""Grand Rapids Itasca County ""","""GPZ""= ""Grand Rapids Itasca County """
GQQ,Galion Municipal Airport,40.7533889,-82.7238056,,''GQQ''=''Galion Municipal Airport'',,"""","GQQ""= ""Galion Municipal Airport ""","""GQQ""= ""Galion Municipal Airport """
GRB,Austin Straubel Intl,44.485072,-88.129589,,''GRB''=''Austin Straubel Intl'',,"""","GRB""= ""Austin Straubel Intl ""","""GRB""= ""Austin Straubel Intl """
GRF,Gray Aaf,47.079217,-122.580783,,''GRF''=''Gray Aaf'',,"""","GRF""= ""Gray Aaf ""","""GRF""= ""Gray Aaf """
GRI,Central Nebraska Regional Airport,40.9675,-98.3096,,''GRI''=''Central Nebraska Regional Airport'',,"""","GRI""= ""Central Nebraska Regional Airport ""","""GRI""= ""Central Nebraska Regional Airport """
GRK,Robert Gray Aaf,31.06725,-97.828917,,''GRK''=''Robert Gray Aaf'',,"""","GRK""= ""Robert Gray Aaf ""","""GRK""= ""Robert Gray Aaf """
GRM,Grand Marais Cook County Airport,47.8383333,-90.3829444,,''GRM''=''Grand Marais Cook County Airport'',,"""","GRM""= ""Grand Marais Cook County Airport ""","""GRM""= ""Grand Marais Cook County Airport """
GRR,Gerald R Ford Intl,42.880833,-85.522806,,''GRR''=''Gerald R Ford Intl'',,"""","GRR""= ""Gerald R Ford Intl ""","""GRR""= ""Gerald R Ford Intl """
GSB,Seymour Johnson Afb,35.339383,-77.960589,,''GSB''=''Seymour Johnson Afb'',,"""","GSB""= ""Seymour Johnson Afb ""","""GSB""= ""Seymour Johnson Afb """
GSO,Piedmont Triad,36.09775,-79.937306,,''GSO''=''Piedmont Triad'',,"""","GSO""= ""Piedmont Triad ""","""GSO""= ""Piedmont Triad """
GSP,Greenville-Spartanburg International,34.895556,-82.218889,,''GSP''=''Greenville-Spartanburg International'',,"""","GSP""= ""Greenville-Spartanburg International ""","""GSP""= ""Greenville-Spartanburg International """
GST,Gustavus Airport,58.4253,-135.707,,''GST''=''Gustavus Airport'',,"""","GST""= ""Gustavus Airport ""","""GST""= ""Gustavus Airport """
GTB,Wheeler Sack Aaf,44.055619,-75.719458,,''GTB''=''Wheeler Sack Aaf'',,"""","GTB""= ""Wheeler Sack Aaf ""","""GTB""= ""Wheeler Sack Aaf """
GTF,Great Falls Intl,47.482,-111.370689,,''GTF''=''Great Falls Intl'',,"""","GTF""= ""Great Falls Intl ""","""GTF""= ""Great Falls Intl """
GTR,Golden Triangle Regional Airport,33.450333,-88.591361,,''GTR''=''Golden Triangle Regional Airport'',,"""","GTR""= ""Golden Triangle Regional Airport ""","""GTR""= ""Golden Triangle Regional Airport """
GTU,Georgetown Municipal Airport,30.678809,-97.6793837,,''GTU''=''Georgetown Municipal Airport'',,"""","GTU""= ""Georgetown Municipal Airport ""","""GTU""= ""Georgetown Municipal Airport """
GUC,Gunnison - Crested Butte,38.533889,-106.933056,,''GUC''=''Gunnison - Crested Butte'',,"""","GUC""= ""Gunnison - Crested Butte ""","""GUC""= ""Gunnison - Crested Butte """
GUP,Gallup Muni,35.511058,-108.789308,,''GUP''=''Gallup Muni'',,"""","GUP""= ""Gallup Muni ""","""GUP""= ""Gallup Muni """
GUS,Grissom Arb,40.648094,-86.152119,,''GUS''=''Grissom Arb'',,"""","GUS""= ""Grissom Arb ""","""GUS""= ""Grissom Arb """
GVL,Lee Gilmer Memorial Airport,34.272627,-83.8302233,,''GVL''=''Lee Gilmer Memorial Airport'',,"""","GVL""= ""Lee Gilmer Memorial Airport ""","""GVL""= ""Lee Gilmer Memorial Airport """
GVQ,Genesee County Airport,43.03175,-78.1696667,,''GVQ''=''Genesee County Airport'',,"""","GVQ""= ""Genesee County Airport ""","""GVQ""= ""Genesee County Airport """
GVT,Majors,33.067839,-96.065333,,''GVT''=''Majors'',,"""","GVT""= ""Majors ""","""GVT""= ""Majors """
GWO,Greenwood Leflore,33.494328,-90.084706,,''GWO''=''Greenwood Leflore'',,"""","GWO""= ""Greenwood Leflore ""","""GWO""= ""Greenwood Leflore """
GYY,Gary Chicago International Airport,41.6163,-87.4128,,''GYY''=''Gary Chicago International Airport'',,"""","GYY""= ""Gary Chicago International Airport ""","""GYY""= ""Gary Chicago International Airport """
HBG,Hattiesburg Bobby L. Chain Municipal Airport,31.2649444,-89.2528889,,''HBG''=''Hattiesburg Bobby L. Chain Municipal Airport'',,"""","HBG""= ""Hattiesburg Bobby L. Chain Municipal Airport ""","""HBG""= ""Hattiesburg Bobby L. Chain Municipal Airport """
HBR,Hobart Muni,34.991308,-99.051353,,''HBR''=''Hobart Muni'',,"""","HBR""= ""Hobart Muni ""","""HBR""= ""Hobart Muni """
HCC,Columbia County,42.2913,-73.7103,,''HCC''=''Columbia County'',,"""","HCC""= ""Columbia County ""","""HCC""= ""Columbia County """
HCR,Holy Cross Airport,62.1883,-159.775,,''HCR''=''Holy Cross Airport'',,"""","HCR""= ""Holy Cross Airport ""","""HCR""= ""Holy Cross Airport """
HDH,Dillingham,21.579475,-158.197281,,''HDH''=''Dillingham'',,"""","HDH""= ""Dillingham ""","""HDH""= ""Dillingham """
HDI,Hardwick Field Airport,35.2199994,-84.832369,,''HDI''=''Hardwick Field Airport'',,"""","HDI""= ""Hardwick Field Airport ""","""HDI""= ""Hardwick Field Airport """
HDN,Yampa Valley,40.481181,-107.21766,,''HDN''=''Yampa Valley'',,"""","HDN""= ""Yampa Valley ""","""HDN""= ""Yampa Valley """
HDO,Hondo Municipal Airport,29.3591,-99.1775,,''HDO''=''Hondo Municipal Airport'',,"""","HDO""= ""Hondo Municipal Airport ""","""HDO""= ""Hondo Municipal Airport """
HFD,Hartford Brainard,41.736722,-72.649444,,''HFD''=''Hartford Brainard'',,"""","HFD""= ""Hartford Brainard ""","""HFD""= ""Hartford Brainard """
HGR,Hagerstown Regional Richard A Henson Field,39.7079,-77.7295,,''HGR''=''Hagerstown Regional Richard A Henson Field'',,"""","HGR""= ""Hagerstown Regional Richard A Henson Field ""","""HGR""= ""Hagerstown Regional Richard A Henson Field """
HHH,Hilton Head,32.216,-80.752,,''HHH''=''Hilton Head'',,"""","HHH""= ""Hilton Head ""","""HHH""= ""Hilton Head """
HHI,Wheeler Aaf,21.4835,-158.039667,,''HHI''=''Wheeler Aaf'',,"""","HHI""= ""Wheeler Aaf ""","""HHI""= ""Wheeler Aaf """
HHR,Jack Northrop Fld Hawthorne Muni,33.922839,-118.335186,,''HHR''=''Jack Northrop Fld Hawthorne Muni'',,"""","HHR""= ""Jack Northrop Fld Hawthorne Muni ""","""HHR""= ""Jack Northrop Fld Hawthorne Muni """
HIB,Chisholm Hibbing,47.3866,-92.838994,,''HIB''=''Chisholm Hibbing'',,"""","HIB""= ""Chisholm Hibbing ""","""HIB""= ""Chisholm Hibbing """
HIF,Hill Afb,41.123939,-111.973039,,''HIF''=''Hill Afb'',,"""","HIF""= ""Hill Afb ""","""HIF""= ""Hill Afb """
HII,Lake Havasu City Airport,34.5711111,-114.3582778,,''HII''=''Lake Havasu City Airport'',,"""","HII""= ""Lake Havasu City Airport ""","""HII""= ""Lake Havasu City Airport """
HIO,Portland Hillsboro,45.540394,-122.949825,,''HIO''=''Portland Hillsboro'',,"""","HIO""= ""Portland Hillsboro ""","""HIO""= ""Portland Hillsboro """
HKB,Healy River Airport,63.8675,-148.968889,,''HKB''=''Healy River Airport'',,"""","HKB""= ""Healy River Airport ""","""HKB""= ""Healy River Airport """
HKY,Hickory Rgnl,35.741147,-81.38955,,''HKY''=''Hickory Rgnl'',,"""","HKY""= ""Hickory Rgnl ""","""HKY""= ""Hickory Rgnl """
HLG,Wheeling Ohio County Airport,40.175,-80.6463,,''HLG''=''Wheeling Ohio County Airport'',,"""","HLG""= ""Wheeling Ohio County Airport ""","""HLG""= ""Wheeling Ohio County Airport """
HLN,Helena Rgnl,46.606806,-111.98275,,''HLN''=''Helena Rgnl'',,"""","HLN""= ""Helena Rgnl ""","""HLN""= ""Helena Rgnl """
HLR,Hood Aaf,31.138731,-97.714469,,''HLR''=''Hood Aaf'',,"""","HLR""= ""Hood Aaf ""","""HLR""= ""Hood Aaf """
HMN,Holloman Afb,32.852519,-106.106525,,''HMN''=''Holloman Afb'',,"""","HMN""= ""Holloman Afb ""","""HMN""= ""Holloman Afb """
HNH,Hoonah Airport,58.096111,-135.409722,,''HNH''=''Hoonah Airport'',,"""","HNH""= ""Hoonah Airport ""","""HNH""= ""Hoonah Airport """
HNL,Honolulu Intl,21.318681,-157.922428,,''HNL''=''Honolulu Intl'',,"""","HNL""= ""Honolulu Intl ""","""HNL""= ""Honolulu Intl """
HNM,Hana,20.795636,-156.014439,,''HNM''=''Hana'',,"""","HNM""= ""Hana ""","""HNM""= ""Hana """
HNS,Haines Airport,59.2438,-135.524,,''HNS''=''Haines Airport'',,"""","HNS""= ""Haines Airport ""","""HNS""= ""Haines Airport """
HOB,Lea Co Rgnl,32.687528,-103.217028,,''HOB''=''Lea Co Rgnl'',,"""","HOB""= ""Lea Co Rgnl ""","""HOB""= ""Lea Co Rgnl """
HOM,Homer,59.645556,-151.476583,,''HOM''=''Homer'',,"""","HOM""= ""Homer ""","""HOM""= ""Homer """
HON,Huron Rgnl,44.3852,-98.228542,,''HON''=''Huron Rgnl'',,"""","HON""= ""Huron Rgnl ""","""HON""= ""Huron Rgnl """
HOP,Campbell Aaf,36.668567,-87.496183,,''HOP''=''Campbell Aaf'',,"""","HOP""= ""Campbell Aaf ""","""HOP""= ""Campbell Aaf """
HOT,Memorial Field,34.478,-93.0962,,''HOT''=''Memorial Field'',,"""","HOT""= ""Memorial Field ""","""HOT""= ""Memorial Field """
HOU,William P Hobby,29.645419,-95.278889,,''HOU''=''William P Hobby'',,"""","HOU""= ""William P Hobby ""","""HOU""= ""William P Hobby """
HPB,Hooper Bay Airport,61.5239,-166.147,,''HPB''=''Hooper Bay Airport'',,"""","HPB""= ""Hooper Bay Airport ""","""HPB""= ""Hooper Bay Airport """
HPN,Westchester Co,41.066959,-73.707575,,''HPN''=''Westchester Co'',,"""","HPN""= ""Westchester Co ""","""HPN""= ""Westchester Co """
HQM,Bowerman Field,46.9711944,-123.9365556,,''HQM''=''Bowerman Field'',,"""","HQM""= ""Bowerman Field ""","""HQM""= ""Bowerman Field """
HQU,McDuffie County Airport,33.5297315,-82.5169509,,''HQU''=''McDuffie County Airport'',,"""","HQU""= ""McDuffie County Airport ""","""HQU""= ""McDuffie County Airport """
HRL,Valley Intl,26.2285,-97.654389,,''HRL''=''Valley Intl'',,"""","HRL""= ""Valley Intl ""","""HRL""= ""Valley Intl """
HRO,Boone Co,36.261519,-93.154728,,''HRO''=''Boone Co'',,"""","HRO""= ""Boone Co ""","""HRO""= ""Boone Co """
HRT,Hurlburt Fld,30.427803,-86.689278,,''HRT''=''Hurlburt Fld'',,"""","HRT""= ""Hurlburt Fld ""","""HRT""= ""Hurlburt Fld """
HSH,Henderson Executive Airport,35.972778,-115.134444,,''HSH''=''Henderson Executive Airport'',,"""","HSH""= ""Henderson Executive Airport ""","""HSH""= ""Henderson Executive Airport """
HSL,Huslia Airport,65.697778,-156.351389,,''HSL''=''Huslia Airport'',,"""","HSL""= ""Huslia Airport ""","""HSL""= ""Huslia Airport """
HST,Homestead Arb,25.48855,-80.383567,,''HST''=''Homestead Arb'',,"""","HST""= ""Homestead Arb ""","""HST""= ""Homestead Arb """
HSV,Huntsville International Airport-Carl T Jones Field,34.6371944,-86.7750556,,''HSV''=''Huntsville International Airport-Carl T Jones Field'',,"""","HSV""= ""Huntsville International Airport-Carl T Jones Field ""","""HSV""= ""Huntsville International Airport-Carl T Jones Field """
HTL,Roscommon Co,44.359806,-84.671112,,''HTL''=''Roscommon Co'',,"""","HTL""= ""Roscommon Co ""","""HTL""= ""Roscommon Co """
HTS,Tri State Milton J Ferguson Field,38.3667,-82.558,,''HTS''=''Tri State Milton J Ferguson Field'',,"""","HTS""= ""Tri State Milton J Ferguson Field ""","""HTS""= ""Tri State Milton J Ferguson Field """
HUA,Redstone Aaf,34.678653,-86.684781,,''HUA''=''Redstone Aaf'',,"""","HUA""= ""Redstone Aaf ""","""HUA""= ""Redstone Aaf """
HUF,Terre Haute Intl Hulman Fld,39.451464,-87.307561,,''HUF''=''Terre Haute Intl Hulman Fld'',,"""","HUF""= ""Terre Haute Intl Hulman Fld ""","""HUF""= ""Terre Haute Intl Hulman Fld """
HUL,Houlton Intl,46.123083,-67.792056,,''HUL''=''Houlton Intl'',,"""","HUL""= ""Houlton Intl ""","""HUL""= ""Houlton Intl """
HUS,Hughes Airport,66.039167,-154.264722,,''HUS''=''Hughes Airport'',,"""","HUS""= ""Hughes Airport ""","""HUS""= ""Hughes Airport """
HUT,Hutchinson Municipal Airport,38.0655,-97.8606,,''HUT''=''Hutchinson Municipal Airport'',,"""","HUT""= ""Hutchinson Municipal Airport ""","""HUT""= ""Hutchinson Municipal Airport """
HVN,Tweed-New Haven Airport,41.26375,-72.886806,,''HVN''=''Tweed-New Haven Airport'',,"""","HVN""= ""Tweed-New Haven Airport ""","""HVN""= ""Tweed-New Haven Airport """
HVR,Havre City Co,48.542983,-109.762342,,''HVR''=''Havre City Co'',,"""","HVR""= ""Havre City Co ""","""HVR""= ""Havre City Co """
HWD,Hayward Executive Airport,37.65888889,-122.1216667,,''HWD''=''Hayward Executive Airport'',,"""","HWD""= ""Hayward Executive Airport ""","""HWD""= ""Hayward Executive Airport """
HWO,North Perry,26.001222,-80.240722,,''HWO''=''North Perry'',,"""","HWO""= ""North Perry ""","""HWO""= ""North Perry """
HXD,Hilton Head Airport,32.2243611,-80.6974722,,''HXD''=''Hilton Head Airport'',,"""","HXD""= ""Hilton Head Airport ""","""HXD""= ""Hilton Head Airport """
HYA,Barnstable Muni Boardman Polando Fld,41.669336,-70.280356,,''HYA''=''Barnstable Muni Boardman Polando Fld'',,"""","HYA""= ""Barnstable Muni Boardman Polando Fld ""","""HYA""= ""Barnstable Muni Boardman Polando Fld """
HYG,Hydaburg Seaplane Base,55.206389,-132.828333,,''HYG''=''Hydaburg Seaplane Base'',,"""","HYG""= ""Hydaburg Seaplane Base ""","""HYG""= ""Hydaburg Seaplane Base """
HYL,Hollis Seaplane Base,55.481667,-132.646111,,''HYL''=''Hollis Seaplane Base'',,"""","HYL""= ""Hollis Seaplane Base ""","""HYL""= ""Hollis Seaplane Base """
HYS,Hays Regional Airport,38.8422,-99.2732,,''HYS''=''Hays Regional Airport'',,"""","HYS""= ""Hays Regional Airport ""","""HYS""= ""Hays Regional Airport """
HZL,Hazleton Municipal,40.989167,-76.0025,,''HZL''=''Hazleton Municipal'',,"""","HZL""= ""Hazleton Municipal ""","""HZL""= ""Hazleton Municipal """
IAB,Mc Connell Afb,37.621853,-97.268192,,''IAB''=''Mc Connell Afb'',,"""","IAB""= ""Mc Connell Afb ""","""IAB""= ""Mc Connell Afb """
IAD,Washington Dulles Intl,38.944533,-77.455811,,''IAD''=''Washington Dulles Intl'',,"""","IAD""= ""Washington Dulles Intl ""","""IAD""= ""Washington Dulles Intl """
IAG,Niagara Falls Intl,43.107333,-78.946194,,''IAG''=''Niagara Falls Intl'',,"""","IAG""= ""Niagara Falls Intl ""","""IAG""= ""Niagara Falls Intl """
IAH,George Bush Intercontinental,29.984433,-95.341442,,''IAH''=''George Bush Intercontinental'',,"""","IAH""= ""George Bush Intercontinental ""","""IAH""= ""George Bush Intercontinental """
IAN,Bob Baker Memorial Airport,66.975833,-160.436667,,''IAN''=''Bob Baker Memorial Airport'',,"""","IAN""= ""Bob Baker Memorial Airport ""","""IAN""= ""Bob Baker Memorial Airport """
ICT,Wichita Mid Continent,37.649944,-97.433056,,''ICT''=''Wichita Mid Continent'',,"""","ICT""= ""Wichita Mid Continent ""","""ICT""= ""Wichita Mid Continent """
ICY,Icy Bay Airport,59.968889,-141.661667,,''ICY''=''Icy Bay Airport'',,"""","ICY""= ""Icy Bay Airport ""","""ICY""= ""Icy Bay Airport """
IDA,Idaho Falls Rgnl,43.514556,-112.07075,,''IDA''=''Idaho Falls Rgnl'',,"""","IDA""= ""Idaho Falls Rgnl ""","""IDA""= ""Idaho Falls Rgnl """
IDL,Idlewild Intl,40.639751,-73.778924,,''IDL''=''Idlewild Intl'',,"""","IDL""= ""Idlewild Intl ""","""IDL""= ""Idlewild Intl """
IFP,Laughlin-Bullhead Intl,35.1574,-114.56,,''IFP''=''Laughlin-Bullhead Intl'',,"""","IFP""= ""Laughlin-Bullhead Intl ""","""IFP""= ""Laughlin-Bullhead Intl """
IGG,Igiugig Airport,59.324,-155.902,,''IGG''=''Igiugig Airport'',,"""","IGG""= ""Igiugig Airport ""","""IGG""= ""Igiugig Airport """
IGM,Kingman Airport,35.2595,-113.938,,''IGM''=''Kingman Airport'',,"""","IGM""= ""Kingman Airport ""","""IGM""= ""Kingman Airport """
IGQ,Lansing Municipal,41.5349167,-87.5295278,,''IGQ''=''Lansing Municipal'',,"""","IGQ""= ""Lansing Municipal ""","""IGQ""= ""Lansing Municipal """
IJD,Windham Airport,41.7440278,-72.1802222,,''IJD''=''Windham Airport'',,"""","IJD""= ""Windham Airport ""","""IJD""= ""Windham Airport """
IKK,Greater Kankakee,41.071389,-87.846278,,''IKK''=''Greater Kankakee'',,"""","IKK""= ""Greater Kankakee ""","""IKK""= ""Greater Kankakee """
IKO,Nikolski Air Station,52.941667,-168.848889,,''IKO''=''Nikolski Air Station'',,"""","IKO""= ""Nikolski Air Station ""","""IKO""= ""Nikolski Air Station """
IKR,Kirtland Air Force Base,35.040222,-106.609194,,''IKR''=''Kirtland Air Force Base'',,"""","IKR""= ""Kirtland Air Force Base ""","""IKR""= ""Kirtland Air Force Base """
IKV,Ankeny Regl Airport,41.691389,-93.566389,,''IKV''=''Ankeny Regl Airport'',,"""","IKV""= ""Ankeny Regl Airport ""","""IKV""= ""Ankeny Regl Airport """
ILG,New Castle,39.678722,-75.606528,,''ILG''=''New Castle'',,"""","ILG""= ""New Castle ""","""ILG""= ""New Castle """
ILI,Iliamna,59.754356,-154.910961,,''ILI''=''Iliamna'',,"""","ILI""= ""Iliamna ""","""ILI""= ""Iliamna """
ILM,Wilmington Intl,34.270615,-77.902569,,''ILM''=''Wilmington Intl'',,"""","ILM""= ""Wilmington Intl ""","""ILM""= ""Wilmington Intl """
ILN,Wilmington Airborne Airpark,39.42792,-83.792118,,''ILN''=''Wilmington Airborne Airpark'',,"""","ILN""= ""Wilmington Airborne Airpark ""","""ILN""= ""Wilmington Airborne Airpark """
IMM,Immokalee,26.433889,-81.401389,,''IMM''=''Immokalee'',,"""","IMM""= ""Immokalee ""","""IMM""= ""Immokalee """
IMT,Ford Airport,45.8183611,-88.1145556,,''IMT''=''Ford Airport'',,"""","IMT""= ""Ford Airport ""","""IMT""= ""Ford Airport """
IND,Indianapolis Intl,39.717331,-86.294383,,''IND''=''Indianapolis Intl'',,"""","IND""= ""Indianapolis Intl ""","""IND""= ""Indianapolis Intl """
INJ,Hillsboro Muni,32.083486,-97.097228,,''INJ''=''Hillsboro Muni'',,"""","INJ""= ""Hillsboro Muni ""","""INJ""= ""Hillsboro Muni """
INK,Winkler Co,31.779628,-103.201361,,''INK''=''Winkler Co'',,"""","INK""= ""Winkler Co ""","""INK""= ""Winkler Co """
INL,Falls Intl,48.566186,-93.403067,,''INL''=''Falls Intl'',,"""","INL""= ""Falls Intl ""","""INL""= ""Falls Intl """
INS,Creech Afb,36.587183,-115.673353,,''INS''=''Creech Afb'',,"""","INS""= ""Creech Afb ""","""INS""= ""Creech Afb """
INT,Smith Reynolds,36.133722,-80.222,,''INT''=''Smith Reynolds'',,"""","INT""= ""Smith Reynolds ""","""INT""= ""Smith Reynolds """
INW,Winslow-Lindbergh Regional Airport,35.0219167,-110.7225278,,''INW''=''Winslow-Lindbergh Regional Airport'',,"""","INW""= ""Winslow-Lindbergh Regional Airport ""","""INW""= ""Winslow-Lindbergh Regional Airport """
IOW,Iowa City Municipal Airport,41.639244,-91.546503,,''IOW''=''Iowa City Municipal Airport'',,"""","IOW""= ""Iowa City Municipal Airport ""","""IOW""= ""Iowa City Municipal Airport """
IPL,Imperial Co,32.834219,-115.578744,,''IPL''=''Imperial Co'',,"""","IPL""= ""Imperial Co ""","""IPL""= ""Imperial Co """
IPT,Williamsport Rgnl,41.241836,-76.921094,,''IPT''=''Williamsport Rgnl'',,"""","IPT""= ""Williamsport Rgnl ""","""IPT""= ""Williamsport Rgnl """
IRC,Circle City Airport,65.827778,-144.076111,,''IRC''=''Circle City Airport'',,"""","IRC""= ""Circle City Airport ""","""IRC""= ""Circle City Airport """
IRK,Kirksville Regional Airport,40.0935,-92.5449,,''IRK''=''Kirksville Regional Airport'',,"""","IRK""= ""Kirksville Regional Airport ""","""IRK""= ""Kirksville Regional Airport """
ISM,Kissimmee Gateway Airport,28.289806,-81.437083,,''ISM''=''Kissimmee Gateway Airport'',,"""","ISM""= ""Kissimmee Gateway Airport ""","""ISM""= ""Kissimmee Gateway Airport """
ISN,Sloulin Fld Intl,48.177939,-103.642347,,''ISN''=''Sloulin Fld Intl'',,"""","ISN""= ""Sloulin Fld Intl ""","""ISN""= ""Sloulin Fld Intl """
